[
  {
    "name": "Akureyri Airport",
    "municipality": "Akureyri",
    "iata_code": "AEY",
    "iso_country": "IS",
    "latitude_deg": 65.66000366,
    "longitude_deg": -18.0727005,
    "type": "medium_airport"
  },
  {
    "name": "Egilssta\u00f0ir Airport",
    "municipality": "Egilssta\u00f0ir",
    "iata_code": "EGS",
    "iso_country": "IS",
    "latitude_deg": 65.28330231,
    "longitude_deg": -14.40139961,
    "type": "medium_airport"
  },
  {
    "name": "Hornafj\u00f6r\u00f0ur Airport",
    "municipality": "H\u00f6fn",
    "iata_code": "HFN",
    "iso_country": "IS",
    "latitude_deg": 64.295601,
    "longitude_deg": -15.2272,
    "type": "medium_airport"
  },
  {
    "name": "H\u00fasav\u00edk Airport",
    "municipality": "H\u00fasav\u00edk",
    "iata_code": "HZK",
    "iso_country": "IS",
    "latitude_deg": 65.952301,
    "longitude_deg": -17.426001,
    "type": "medium_airport"
  },
  {
    "name": "\u00cdsafj\u00f6r\u00f0ur Airport",
    "municipality": "\u00cdsafj\u00f6r\u00f0ur",
    "iata_code": "IFJ",
    "iso_country": "IS",
    "latitude_deg": 66.05809784,
    "longitude_deg": -23.13529968,
    "type": "medium_airport"
  },
  {
    "name": "Keflavik International Airport",
    "municipality": "Reykjav\u00edk",
    "iata_code": "KEF",
    "iso_country": "IS",
    "latitude_deg": 63.98500061,
    "longitude_deg": -22.60560036,
    "type": "large_airport"
  },
  {
    "name": "Reykjavik Airport",
    "municipality": "Reykjavik",
    "iata_code": "RKV",
    "iso_country": "IS",
    "latitude_deg": 64.12999725,
    "longitude_deg": -21.94059944,
    "type": "medium_airport"
  },
  {
    "name": "Siglufj\u00f6r\u00f0ur Airport",
    "municipality": "Siglufj\u00f6r\u00f0ur",
    "iata_code": "SIJ",
    "iso_country": "IS",
    "latitude_deg": 66.133301,
    "longitude_deg": -18.9167,
    "type": "medium_airport"
  },
  {
    "name": "Vestmannaeyjar Airport",
    "municipality": "Vestmannaeyjar",
    "iata_code": "VEY",
    "iso_country": "IS",
    "latitude_deg": 63.42430115,
    "longitude_deg": -20.27890015,
    "type": "medium_airport"
  },
  {
    "name": "Pri\u0161tina International Airport",
    "municipality": "Prishtina",
    "iata_code": "PRN",
    "iso_country": "XK",
    "latitude_deg": 42.5728,
    "longitude_deg": 21.035801,
    "type": "large_airport"
  },
  {
    "name": "Lefkoniko Airport",
    "municipality": "Ge\u00e7itkale",
    "iata_code": "GEC",
    "iso_country": "CY",
    "latitude_deg": 35.235947,
    "longitude_deg": 33.724358,
    "type": "medium_airport"
  },
  {
    "name": "Antwerp International Airport (Deurne)",
    "municipality": "Antwerp",
    "iata_code": "ANR",
    "iso_country": "BE",
    "latitude_deg": 51.18939972,
    "longitude_deg": 4.460279942,
    "type": "medium_airport"
  },
  {
    "name": "Brussels Airport",
    "municipality": "Brussels",
    "iata_code": "BRU",
    "iso_country": "BE",
    "latitude_deg": 50.90140152,
    "longitude_deg": 4.48443985,
    "type": "large_airport"
  },
  {
    "name": "Brussels South Charleroi Airport",
    "municipality": "Brussels",
    "iata_code": "CRL",
    "iso_country": "BE",
    "latitude_deg": 50.459202,
    "longitude_deg": 4.45382,
    "type": "large_airport"
  },
  {
    "name": "Wevelgem Airport",
    "municipality": "Wevelgem",
    "iata_code": "KJK",
    "iso_country": "BE",
    "latitude_deg": 50.81719971,
    "longitude_deg": 3.20472002,
    "type": "medium_airport"
  },
  {
    "name": "Li\u00e8ge Airport",
    "municipality": "Li\u00e8ge",
    "iata_code": "LGG",
    "iso_country": "BE",
    "latitude_deg": 50.63740158,
    "longitude_deg": 5.443220139,
    "type": "large_airport"
  },
  {
    "name": "Ostend-Bruges International Airport",
    "municipality": "Ostend",
    "iata_code": "OST",
    "iso_country": "BE",
    "latitude_deg": 51.19889832,
    "longitude_deg": 2.862220049,
    "type": "medium_airport"
  },
  {
    "name": "Altenburg-Nobitz Airport",
    "municipality": "Altenburg",
    "iata_code": "AOC",
    "iso_country": "DE",
    "latitude_deg": 50.981945,
    "longitude_deg": 12.506389,
    "type": "medium_airport"
  },
  {
    "name": "Heringsdorf Airport",
    "municipality": "Heringsdorf",
    "iata_code": "HDF",
    "iso_country": "DE",
    "latitude_deg": 53.87870026,
    "longitude_deg": 14.15229988,
    "type": "medium_airport"
  },
  {
    "name": "Magdeburg \"City\" Airport",
    "municipality": "Magdeburg",
    "iata_code": "ZMG",
    "iso_country": "DE",
    "latitude_deg": 52.073612,
    "longitude_deg": 11.626389,
    "type": "medium_airport"
  },
  {
    "name": "Neubrandenburg Airport",
    "municipality": "Neubrandenburg",
    "iata_code": "FNB",
    "iso_country": "DE",
    "latitude_deg": 53.6022,
    "longitude_deg": 13.306,
    "type": "medium_airport"
  },
  {
    "name": "Cottbus-Drewitz Airport",
    "municipality": "Cottbus",
    "iata_code": "CBU",
    "iso_country": "DE",
    "latitude_deg": 51.889442,
    "longitude_deg": 14.531944,
    "type": "medium_airport"
  },
  {
    "name": "Berlin-Sch\u00f6nefeld Airport",
    "municipality": "Berlin",
    "iata_code": "SXF",
    "iso_country": "DE",
    "latitude_deg": 52.380001,
    "longitude_deg": 13.5225,
    "type": "large_airport"
  },
  {
    "name": "Dresden Airport",
    "municipality": "Dresden",
    "iata_code": "DRS",
    "iso_country": "DE",
    "latitude_deg": 51.13280106,
    "longitude_deg": 13.76720047,
    "type": "large_airport"
  },
  {
    "name": "Erfurt Airport",
    "municipality": "Erfurt",
    "iata_code": "ERF",
    "iso_country": "DE",
    "latitude_deg": 50.97980118,
    "longitude_deg": 10.95810032,
    "type": "medium_airport"
  },
  {
    "name": "Frankfurt am Main Airport",
    "municipality": "Frankfurt am Main",
    "iata_code": "FRA",
    "iso_country": "DE",
    "latitude_deg": 50.033333,
    "longitude_deg": 8.570556,
    "type": "large_airport"
  },
  {
    "name": "M\u00fcnster Osnabr\u00fcck Airport",
    "municipality": "M\u00fcnster",
    "iata_code": "FMO",
    "iso_country": "DE",
    "latitude_deg": 52.13460159,
    "longitude_deg": 7.684830189,
    "type": "large_airport"
  },
  {
    "name": "Hamburg Airport",
    "municipality": "Hamburg",
    "iata_code": "HAM",
    "iso_country": "DE",
    "latitude_deg": 53.63040161,
    "longitude_deg": 9.988229752,
    "type": "large_airport"
  },
  {
    "name": "Cologne Bonn Airport",
    "municipality": "Cologne",
    "iata_code": "CGN",
    "iso_country": "DE",
    "latitude_deg": 50.86589813,
    "longitude_deg": 7.142739773,
    "type": "large_airport"
  },
  {
    "name": "D\u00fcsseldorf Airport",
    "municipality": "D\u00fcsseldorf",
    "iata_code": "DUS",
    "iso_country": "DE",
    "latitude_deg": 51.289501,
    "longitude_deg": 6.76678,
    "type": "large_airport"
  },
  {
    "name": "Munich Airport",
    "municipality": "Munich",
    "iata_code": "MUC",
    "iso_country": "DE",
    "latitude_deg": 48.353802,
    "longitude_deg": 11.7861,
    "type": "large_airport"
  },
  {
    "name": "Nuremberg Airport",
    "municipality": "Nuremberg",
    "iata_code": "NUE",
    "iso_country": "DE",
    "latitude_deg": 49.498699,
    "longitude_deg": 11.078056,
    "type": "large_airport"
  },
  {
    "name": "Leipzig/Halle Airport",
    "municipality": "Leipzig",
    "iata_code": "LEJ",
    "iso_country": "DE",
    "latitude_deg": 51.423889,
    "longitude_deg": 12.236389,
    "type": "large_airport"
  },
  {
    "name": "Saarbr\u00fccken Airport",
    "municipality": "Saarbr\u00fccken",
    "iata_code": "SCN",
    "iso_country": "DE",
    "latitude_deg": 49.21459961,
    "longitude_deg": 7.109509945,
    "type": "medium_airport"
  },
  {
    "name": "Stuttgart Airport",
    "municipality": "Stuttgart",
    "iata_code": "STR",
    "iso_country": "DE",
    "latitude_deg": 48.68989944,
    "longitude_deg": 9.221960068,
    "type": "large_airport"
  },
  {
    "name": "Berlin-Tegel Airport",
    "municipality": "Berlin",
    "iata_code": "TXL",
    "iso_country": "DE",
    "latitude_deg": 52.5597,
    "longitude_deg": 13.2877,
    "type": "large_airport"
  },
  {
    "name": "Hannover Airport",
    "municipality": "Hannover",
    "iata_code": "HAJ",
    "iso_country": "DE",
    "latitude_deg": 52.46110153,
    "longitude_deg": 9.685079575,
    "type": "large_airport"
  },
  {
    "name": "Bremen Airport",
    "municipality": "Bremen",
    "iata_code": "BRE",
    "iso_country": "DE",
    "latitude_deg": 53.04750061,
    "longitude_deg": 8.786669731,
    "type": "large_airport"
  },
  {
    "name": "Frankfurt-Egelsbach Airport",
    "municipality": "Frankfurt am Main",
    "iata_code": "QEF",
    "iso_country": "DE",
    "latitude_deg": 49.959999,
    "longitude_deg": 8.645833,
    "type": "medium_airport"
  },
  {
    "name": "Frankfurt-Hahn Airport",
    "municipality": "Frankfurt am Main",
    "iata_code": "HHN",
    "iso_country": "DE",
    "latitude_deg": 49.9487,
    "longitude_deg": 7.26389,
    "type": "medium_airport"
  },
  {
    "name": "Mannheim-City Airport",
    "municipality": "Mannheim",
    "iata_code": "MHG",
    "iso_country": "DE",
    "latitude_deg": 49.473057,
    "longitude_deg": 8.514167,
    "type": "medium_airport"
  },
  {
    "name": "Eisenach-Kindel Airport",
    "municipality": "Eisenach",
    "iata_code": "EIB",
    "iso_country": "DE",
    "latitude_deg": 50.991604,
    "longitude_deg": 10.47973,
    "type": "medium_airport"
  },
  {
    "name": "Siegerland Airport",
    "municipality": null,
    "iata_code": "SGE",
    "iso_country": "DE",
    "latitude_deg": 50.70769882,
    "longitude_deg": 8.082969666,
    "type": "medium_airport"
  },
  {
    "name": "Hamburg-Finkenwerder Airport",
    "municipality": "Hamburg",
    "iata_code": "XFW",
    "iso_country": "DE",
    "latitude_deg": 53.53527832,
    "longitude_deg": 9.83555603,
    "type": "medium_airport"
  },
  {
    "name": "Kiel-Holtenau Airport",
    "municipality": "Kiel",
    "iata_code": "KEL",
    "iso_country": "DE",
    "latitude_deg": 54.37944412,
    "longitude_deg": 10.14527798,
    "type": "medium_airport"
  },
  {
    "name": "L\u00fcbeck Blankensee Airport",
    "municipality": "L\u00fcbeck",
    "iata_code": "LBC",
    "iso_country": "DE",
    "latitude_deg": 53.80540085,
    "longitude_deg": 10.71920013,
    "type": "medium_airport"
  },
  {
    "name": "Memmingen Allgau Airport",
    "municipality": "Memmingen",
    "iata_code": "FMM",
    "iso_country": "DE",
    "latitude_deg": 47.98880005,
    "longitude_deg": 10.23950005,
    "type": "medium_airport"
  },
  {
    "name": "M\u00f6nchengladbach Airport",
    "municipality": "M\u00f6nchengladbach",
    "iata_code": "MGL",
    "iso_country": "DE",
    "latitude_deg": 51.230278,
    "longitude_deg": 6.504444,
    "type": "medium_airport"
  },
  {
    "name": "Paderborn Lippstadt Airport",
    "municipality": "Paderborn",
    "iata_code": "PAD",
    "iso_country": "DE",
    "latitude_deg": 51.61410141,
    "longitude_deg": 8.616319656,
    "type": "medium_airport"
  },
  {
    "name": "Weeze Airport",
    "municipality": "Weeze",
    "iata_code": "NRN",
    "iso_country": "DE",
    "latitude_deg": 51.60240173,
    "longitude_deg": 6.142169952,
    "type": "medium_airport"
  },
  {
    "name": "Dortmund Airport",
    "municipality": "Dortmund",
    "iata_code": "DTM",
    "iso_country": "DE",
    "latitude_deg": 51.5182991,
    "longitude_deg": 7.612239838,
    "type": "large_airport"
  },
  {
    "name": "Augsburg Airport",
    "municipality": "Augsburg",
    "iata_code": "AGB",
    "iso_country": "DE",
    "latitude_deg": 48.425278,
    "longitude_deg": 10.931667,
    "type": "medium_airport"
  },
  {
    "name": "Oberpfaffenhofen Airport",
    "municipality": null,
    "iata_code": "OBF",
    "iso_country": "DE",
    "latitude_deg": 48.081402,
    "longitude_deg": 11.2831,
    "type": "medium_airport"
  },
  {
    "name": "Friedrichshafen Airport",
    "municipality": "Friedrichshafen",
    "iata_code": "FDH",
    "iso_country": "DE",
    "latitude_deg": 47.67129898,
    "longitude_deg": 9.511489868,
    "type": "medium_airport"
  },
  {
    "name": "Schwerin Parchim Airport",
    "municipality": null,
    "iata_code": "SZW",
    "iso_country": "DE",
    "latitude_deg": 53.426998,
    "longitude_deg": 11.7834,
    "type": "medium_airport"
  },
  {
    "name": "Bayreuth Airport",
    "municipality": "Bayreuth",
    "iata_code": "BYU",
    "iso_country": "DE",
    "latitude_deg": 49.985001,
    "longitude_deg": 11.64,
    "type": "medium_airport"
  },
  {
    "name": "Hof-Plauen Airport",
    "municipality": "Hof",
    "iata_code": "HOQ",
    "iso_country": "DE",
    "latitude_deg": 50.28861237,
    "longitude_deg": 11.85638905,
    "type": "medium_airport"
  },
  {
    "name": "Karlsruhe Baden-Baden Airport",
    "municipality": "Baden-Baden",
    "iata_code": "FKB",
    "iso_country": "DE",
    "latitude_deg": 48.77939987,
    "longitude_deg": 8.080499649,
    "type": "large_airport"
  },
  {
    "name": "Donaueschingen-Villingen Airport",
    "municipality": "Donaueschingen",
    "iata_code": "ZQL",
    "iso_country": "DE",
    "latitude_deg": 47.97333145,
    "longitude_deg": 8.522221565,
    "type": "medium_airport"
  },
  {
    "name": "Lahr Airport",
    "municipality": null,
    "iata_code": "LHA",
    "iso_country": "DE",
    "latitude_deg": 48.36930084,
    "longitude_deg": 7.827720165,
    "type": "medium_airport"
  },
  {
    "name": "Braunschweig-Wolfsburg Airport",
    "municipality": "Braunschweig",
    "iata_code": "BWE",
    "iso_country": "DE",
    "latitude_deg": 52.319199,
    "longitude_deg": 10.5561,
    "type": "medium_airport"
  },
  {
    "name": "Kassel-Calden Airport",
    "municipality": "Kassel",
    "iata_code": "KSF",
    "iso_country": "DE",
    "latitude_deg": 51.417273,
    "longitude_deg": 9.384967,
    "type": "medium_airport"
  },
  {
    "name": "Westerland Sylt Airport",
    "municipality": "Westerland",
    "iata_code": "GWT",
    "iso_country": "DE",
    "latitude_deg": 54.91320038,
    "longitude_deg": 8.340470314,
    "type": "medium_airport"
  },
  {
    "name": "K\u00e4rdla Airport",
    "municipality": "K\u00e4rdla",
    "iata_code": "KDL",
    "iso_country": "EE",
    "latitude_deg": 58.99079895,
    "longitude_deg": 22.83069992,
    "type": "medium_airport"
  },
  {
    "name": "Kuressaare Airport",
    "municipality": "Kuressaare",
    "iata_code": "URE",
    "iso_country": "EE",
    "latitude_deg": 58.22990036,
    "longitude_deg": 22.5095005,
    "type": "medium_airport"
  },
  {
    "name": "P\u00e4rnu Airport",
    "municipality": "P\u00e4rnu",
    "iata_code": "EPU",
    "iso_country": "EE",
    "latitude_deg": 58.41899872,
    "longitude_deg": 24.4727993,
    "type": "medium_airport"
  },
  {
    "name": "Lennart Meri Tallinn Airport",
    "municipality": "Tallinn",
    "iata_code": "TLL",
    "iso_country": "EE",
    "latitude_deg": 59.41329956,
    "longitude_deg": 24.83279991,
    "type": "large_airport"
  },
  {
    "name": "Tartu Airport",
    "municipality": "Tartu",
    "iata_code": "TAY",
    "iso_country": "EE",
    "latitude_deg": 58.30749893,
    "longitude_deg": 26.69039917,
    "type": "medium_airport"
  },
  {
    "name": "Enontekio Airport",
    "municipality": "Enontekio",
    "iata_code": "ENF",
    "iso_country": "FI",
    "latitude_deg": 68.36260223,
    "longitude_deg": 23.42429924,
    "type": "medium_airport"
  },
  {
    "name": "Halli Airport",
    "municipality": "Halli / Kuorevesi",
    "iata_code": "KEV",
    "iso_country": "FI",
    "latitude_deg": 61.856039,
    "longitude_deg": 24.786686,
    "type": "medium_airport"
  },
  {
    "name": "Helsinki Malmi Airport",
    "municipality": "Helsinki",
    "iata_code": "HEM",
    "iso_country": "FI",
    "latitude_deg": 60.25460052,
    "longitude_deg": 25.0428009,
    "type": "medium_airport"
  },
  {
    "name": "Helsinki Vantaa Airport",
    "municipality": "Helsinki",
    "iata_code": "HEL",
    "iso_country": "FI",
    "latitude_deg": 60.31719971,
    "longitude_deg": 24.9633007,
    "type": "large_airport"
  },
  {
    "name": "Kitee Airport",
    "municipality": null,
    "iata_code": "KTQ",
    "iso_country": "FI",
    "latitude_deg": 62.1661,
    "longitude_deg": 30.073601,
    "type": "medium_airport"
  },
  {
    "name": "Ivalo Airport",
    "municipality": "Ivalo",
    "iata_code": "IVL",
    "iso_country": "FI",
    "latitude_deg": 68.6072998,
    "longitude_deg": 27.40530014,
    "type": "medium_airport"
  },
  {
    "name": "Joensuu Airport",
    "municipality": "Joensuu / Liperi",
    "iata_code": "JOE",
    "iso_country": "FI",
    "latitude_deg": 62.66289902,
    "longitude_deg": 29.60750008,
    "type": "medium_airport"
  },
  {
    "name": "Jyvaskyla Airport",
    "municipality": "Jyv\u00e4skyl\u00e4n Maalaiskunta",
    "iata_code": "JYV",
    "iso_country": "FI",
    "latitude_deg": 62.3995018,
    "longitude_deg": 25.67830086,
    "type": "medium_airport"
  },
  {
    "name": "Kauhava Airport",
    "municipality": "Kauhava",
    "iata_code": "KAU",
    "iso_country": "FI",
    "latitude_deg": 63.127102,
    "longitude_deg": 23.051399,
    "type": "medium_airport"
  },
  {
    "name": "Kemi-Tornio Airport",
    "municipality": "Kemi / Tornio",
    "iata_code": "KEM",
    "iso_country": "FI",
    "latitude_deg": 65.77870178,
    "longitude_deg": 24.58209991,
    "type": "medium_airport"
  },
  {
    "name": "Kajaani Airport",
    "municipality": "Kajaani",
    "iata_code": "KAJ",
    "iso_country": "FI",
    "latitude_deg": 64.28549957,
    "longitude_deg": 27.69239998,
    "type": "medium_airport"
  },
  {
    "name": "Kauhajoki Airport",
    "municipality": null,
    "iata_code": "KHJ",
    "iso_country": "FI",
    "latitude_deg": 62.46250153,
    "longitude_deg": 22.39310074,
    "type": "medium_airport"
  },
  {
    "name": "Kokkola-Pietarsaari Airport",
    "municipality": "Kokkola / Kruunupyy",
    "iata_code": "KOK",
    "iso_country": "FI",
    "latitude_deg": 63.72119904,
    "longitude_deg": 23.14310074,
    "type": "medium_airport"
  },
  {
    "name": "Kuusamo Airport",
    "municipality": "Kuusamo",
    "iata_code": "KAO",
    "iso_country": "FI",
    "latitude_deg": 65.98760223,
    "longitude_deg": 29.23940086,
    "type": "medium_airport"
  },
  {
    "name": "Kittil\u00e4 Airport",
    "municipality": "Kittil\u00e4",
    "iata_code": "KTT",
    "iso_country": "FI",
    "latitude_deg": 67.7009964,
    "longitude_deg": 24.84679985,
    "type": "medium_airport"
  },
  {
    "name": "Kuopio Airport",
    "municipality": "Kuopio / Siilinj\u00e4rvi",
    "iata_code": "KUO",
    "iso_country": "FI",
    "latitude_deg": 63.00709915,
    "longitude_deg": 27.79780006,
    "type": "medium_airport"
  },
  {
    "name": "Lappeenranta Airport",
    "municipality": "Lappeenranta",
    "iata_code": "LPP",
    "iso_country": "FI",
    "latitude_deg": 61.044601,
    "longitude_deg": 28.144743,
    "type": "medium_airport"
  },
  {
    "name": "Mariehamn Airport",
    "municipality": null,
    "iata_code": "MHQ",
    "iso_country": "FI",
    "latitude_deg": 60.12220001,
    "longitude_deg": 19.89819908,
    "type": "medium_airport"
  },
  {
    "name": "Mikkeli Airport",
    "municipality": "Mikkeli",
    "iata_code": "MIK",
    "iso_country": "FI",
    "latitude_deg": 61.6866,
    "longitude_deg": 27.201799,
    "type": "medium_airport"
  },
  {
    "name": "Oulu Airport",
    "municipality": "Oulu / Oulunsalo",
    "iata_code": "OUL",
    "iso_country": "FI",
    "latitude_deg": 64.93009949,
    "longitude_deg": 25.35460091,
    "type": "medium_airport"
  },
  {
    "name": "Pori Airport",
    "municipality": "Pori",
    "iata_code": "POR",
    "iso_country": "FI",
    "latitude_deg": 61.46170044,
    "longitude_deg": 21.79999924,
    "type": "medium_airport"
  },
  {
    "name": "Rovaniemi Airport",
    "municipality": "Rovaniemi",
    "iata_code": "RVN",
    "iso_country": "FI",
    "latitude_deg": 66.56479645,
    "longitude_deg": 25.83040047,
    "type": "medium_airport"
  },
  {
    "name": "Savonlinna Airport",
    "municipality": "Savonlinna",
    "iata_code": "SVL",
    "iso_country": "FI",
    "latitude_deg": 61.94309998,
    "longitude_deg": 28.94510078,
    "type": "medium_airport"
  },
  {
    "name": "Sein\u00e4joki Airport",
    "municipality": "Sein\u00e4joki / Ilmajoki",
    "iata_code": "SJY",
    "iso_country": "FI",
    "latitude_deg": 62.692101,
    "longitude_deg": 22.8323,
    "type": "medium_airport"
  },
  {
    "name": "Sodankyla Airport",
    "municipality": "Sodankyla",
    "iata_code": "SOT",
    "iso_country": "FI",
    "latitude_deg": 67.39499664,
    "longitude_deg": 26.61910057,
    "type": "medium_airport"
  },
  {
    "name": "Tampere-Pirkkala Airport",
    "municipality": "Tampere / Pirkkala",
    "iata_code": "TMP",
    "iso_country": "FI",
    "latitude_deg": 61.41410065,
    "longitude_deg": 23.60440063,
    "type": "medium_airport"
  },
  {
    "name": "Turku Airport",
    "municipality": "Turku",
    "iata_code": "TKU",
    "iso_country": "FI",
    "latitude_deg": 60.51409912,
    "longitude_deg": 22.26280022,
    "type": "medium_airport"
  },
  {
    "name": "Vaasa Airport",
    "municipality": "Vaasa",
    "iata_code": "VAA",
    "iso_country": "FI",
    "latitude_deg": 63.05070114,
    "longitude_deg": 21.7621994,
    "type": "medium_airport"
  },
  {
    "name": "Varkaus Airport",
    "municipality": "Varkaus / Joroinen",
    "iata_code": "VRK",
    "iso_country": "FI",
    "latitude_deg": 62.17110062,
    "longitude_deg": 27.86860085,
    "type": "medium_airport"
  },
  {
    "name": "Ylivieska Airfield",
    "municipality": null,
    "iata_code": "YLI",
    "iso_country": "FI",
    "latitude_deg": 64.0547222,
    "longitude_deg": 24.7252778,
    "type": "medium_airport"
  },
  {
    "name": "Belfast International Airport",
    "municipality": "Belfast",
    "iata_code": "BFS",
    "iso_country": "GB",
    "latitude_deg": 54.65750122,
    "longitude_deg": -6.215829849,
    "type": "large_airport"
  },
  {
    "name": "St Angelo Airport",
    "municipality": "Enniskillen",
    "iata_code": "ENK",
    "iso_country": "GB",
    "latitude_deg": 54.39889908,
    "longitude_deg": -7.651669979,
    "type": "medium_airport"
  },
  {
    "name": "George Best Belfast City Airport",
    "municipality": "Belfast",
    "iata_code": "BHD",
    "iso_country": "GB",
    "latitude_deg": 54.61809921,
    "longitude_deg": -5.872499943,
    "type": "large_airport"
  },
  {
    "name": "City of Derry Airport",
    "municipality": "Derry",
    "iata_code": "LDY",
    "iso_country": "GB",
    "latitude_deg": 55.0428009,
    "longitude_deg": -7.161109924,
    "type": "medium_airport"
  },
  {
    "name": "Birmingham International Airport",
    "municipality": "Birmingham",
    "iata_code": "BHX",
    "iso_country": "GB",
    "latitude_deg": 52.45389938,
    "longitude_deg": -1.748029947,
    "type": "large_airport"
  },
  {
    "name": "Coventry Airport",
    "municipality": "Coventry",
    "iata_code": "CVT",
    "iso_country": "GB",
    "latitude_deg": 52.36970139,
    "longitude_deg": -1.479719996,
    "type": "medium_airport"
  },
  {
    "name": "Gloucestershire Airport",
    "municipality": "Staverton",
    "iata_code": "GLO",
    "iso_country": "GB",
    "latitude_deg": 51.89419937,
    "longitude_deg": -2.167220116,
    "type": "medium_airport"
  },
  {
    "name": "Nottingham Airport",
    "municipality": "Nottingham",
    "iata_code": "NQT",
    "iso_country": "GB",
    "latitude_deg": 52.91999817,
    "longitude_deg": -1.079169989,
    "type": "medium_airport"
  },
  {
    "name": "Manchester Airport",
    "municipality": "Manchester",
    "iata_code": "MAN",
    "iso_country": "GB",
    "latitude_deg": 53.35369873,
    "longitude_deg": -2.274950027,
    "type": "large_airport"
  },
  {
    "name": "Robin Hood Doncaster Sheffield Airport",
    "municipality": "Doncaster",
    "iata_code": "DSA",
    "iso_country": "GB",
    "latitude_deg": 53.48053781,
    "longitude_deg": -1.010656357,
    "type": "large_airport"
  },
  {
    "name": "RNAS Yeovilton",
    "municipality": "Yeovil",
    "iata_code": "YEO",
    "iso_country": "GB",
    "latitude_deg": 51.00939941,
    "longitude_deg": -2.638819933,
    "type": "medium_airport"
  },
  {
    "name": "Campbeltown Airport",
    "municipality": "Campbeltown",
    "iata_code": "CAL",
    "iso_country": "GB",
    "latitude_deg": 55.43719864,
    "longitude_deg": -5.686389923,
    "type": "medium_airport"
  },
  {
    "name": "Eday Airport",
    "municipality": "Eday",
    "iata_code": "EOI",
    "iso_country": "GB",
    "latitude_deg": 59.19060135,
    "longitude_deg": -2.772219896,
    "type": "medium_airport"
  },
  {
    "name": "Fair Isle Airport",
    "municipality": "Fair Isle",
    "iata_code": "FIE",
    "iso_country": "GB",
    "latitude_deg": 59.53580093,
    "longitude_deg": -1.628059983,
    "type": "medium_airport"
  },
  {
    "name": "Haverfordwest Airport",
    "municipality": "Haverfordwest",
    "iata_code": "HAW",
    "iso_country": "GB",
    "latitude_deg": 51.83309937,
    "longitude_deg": -4.961110115,
    "type": "medium_airport"
  },
  {
    "name": "Cardiff International Airport",
    "municipality": "Cardiff",
    "iata_code": "CWL",
    "iso_country": "GB",
    "latitude_deg": 51.39670181,
    "longitude_deg": -3.343329906,
    "type": "large_airport"
  },
  {
    "name": "Swansea Airport",
    "municipality": "Swansea",
    "iata_code": "SWS",
    "iso_country": "GB",
    "latitude_deg": 51.6053009,
    "longitude_deg": -4.067830086,
    "type": "medium_airport"
  },
  {
    "name": "Bristol Airport",
    "municipality": "Bristol",
    "iata_code": "BRS",
    "iso_country": "GB",
    "latitude_deg": 51.382702,
    "longitude_deg": -2.71909,
    "type": "large_airport"
  },
  {
    "name": "Liverpool John Lennon Airport",
    "municipality": "Liverpool",
    "iata_code": "LPL",
    "iso_country": "GB",
    "latitude_deg": 53.33359909,
    "longitude_deg": -2.849720001,
    "type": "large_airport"
  },
  {
    "name": "London Luton Airport",
    "municipality": "London",
    "iata_code": "LTN",
    "iso_country": "GB",
    "latitude_deg": 51.87469864,
    "longitude_deg": -0.368333012,
    "type": "large_airport"
  },
  {
    "name": "Land's End Airport",
    "municipality": "Land's End",
    "iata_code": "LEQ",
    "iso_country": "GB",
    "latitude_deg": 50.102798,
    "longitude_deg": -5.67056,
    "type": "medium_airport"
  },
  {
    "name": "St. Mary's Airport",
    "municipality": "St. Mary's",
    "iata_code": "ISC",
    "iso_country": "GB",
    "latitude_deg": 49.91329956,
    "longitude_deg": -6.291669846,
    "type": "medium_airport"
  },
  {
    "name": "Bournemouth Airport",
    "municipality": "Bournemouth",
    "iata_code": "BOH",
    "iso_country": "GB",
    "latitude_deg": 50.77999878,
    "longitude_deg": -1.842499971,
    "type": "large_airport"
  },
  {
    "name": "Southampton Airport",
    "municipality": "Southampton",
    "iata_code": "SOU",
    "iso_country": "GB",
    "latitude_deg": 50.95029831,
    "longitude_deg": -1.35679996,
    "type": "large_airport"
  },
  {
    "name": "Lasham Airport",
    "municipality": "Lasham",
    "iata_code": "QLA",
    "iso_country": "GB",
    "latitude_deg": 51.18719864,
    "longitude_deg": -1.033499956,
    "type": "medium_airport"
  },
  {
    "name": "Newquay Cornwall Airport",
    "municipality": "Newquay",
    "iata_code": "NQY",
    "iso_country": "GB",
    "latitude_deg": 50.44060135,
    "longitude_deg": -4.995409966,
    "type": "medium_airport"
  },
  {
    "name": "Shoreham Airport",
    "municipality": "Brighton",
    "iata_code": "ESH",
    "iso_country": "GB",
    "latitude_deg": 50.835602,
    "longitude_deg": -0.297222,
    "type": "medium_airport"
  },
  {
    "name": "London Biggin Hill Airport",
    "municipality": "London",
    "iata_code": "BQH",
    "iso_country": "GB",
    "latitude_deg": 51.3307991,
    "longitude_deg": 0.032499999,
    "type": "medium_airport"
  },
  {
    "name": "London Gatwick Airport",
    "municipality": "London",
    "iata_code": "LGW",
    "iso_country": "GB",
    "latitude_deg": 51.148102,
    "longitude_deg": -0.190278,
    "type": "large_airport"
  },
  {
    "name": "London City Airport",
    "municipality": "London",
    "iata_code": "LCY",
    "iso_country": "GB",
    "latitude_deg": 51.505299,
    "longitude_deg": 0.055278,
    "type": "medium_airport"
  },
  {
    "name": "Farnborough Airport",
    "municipality": "Farnborough",
    "iata_code": "FAB",
    "iso_country": "GB",
    "latitude_deg": 51.2757988,
    "longitude_deg": -0.776332974,
    "type": "medium_airport"
  },
  {
    "name": "Blackbushe Airport",
    "municipality": "Yateley",
    "iata_code": "BBS",
    "iso_country": "GB",
    "latitude_deg": 51.32389832,
    "longitude_deg": -0.847500026,
    "type": "medium_airport"
  },
  {
    "name": "London Heathrow Airport",
    "municipality": "London",
    "iata_code": "LHR",
    "iso_country": "GB",
    "latitude_deg": 51.4706,
    "longitude_deg": -0.461941,
    "type": "large_airport"
  },
  {
    "name": "Southend Airport",
    "municipality": "Southend",
    "iata_code": "SEN",
    "iso_country": "GB",
    "latitude_deg": 51.57139969,
    "longitude_deg": 0.695555985,
    "type": "medium_airport"
  },
  {
    "name": "Lydd Airport",
    "municipality": "Lydd, Ashford",
    "iata_code": "LYX",
    "iso_country": "GB",
    "latitude_deg": 50.95610046,
    "longitude_deg": 0.939167023,
    "type": "medium_airport"
  },
  {
    "name": "Carlisle Airport",
    "municipality": "Carlisle",
    "iata_code": "CAX",
    "iso_country": "GB",
    "latitude_deg": 54.9375,
    "longitude_deg": -2.809170008,
    "type": "medium_airport"
  },
  {
    "name": "Blackpool International Airport",
    "municipality": "Blackpool",
    "iata_code": "BLK",
    "iso_country": "GB",
    "latitude_deg": 53.77170181,
    "longitude_deg": -3.028609991,
    "type": "medium_airport"
  },
  {
    "name": "Humberside Airport",
    "municipality": "Grimsby",
    "iata_code": "HUY",
    "iso_country": "GB",
    "latitude_deg": 53.57440186,
    "longitude_deg": -0.350832999,
    "type": "medium_airport"
  },
  {
    "name": "Barrow Walney Island Airport",
    "municipality": "Barrow-in-Furness",
    "iata_code": "BWF",
    "iso_country": "GB",
    "latitude_deg": 54.1286111,
    "longitude_deg": -3.2675,
    "type": "medium_airport"
  },
  {
    "name": "Leeds Bradford Airport",
    "municipality": "Leeds",
    "iata_code": "LBA",
    "iso_country": "GB",
    "latitude_deg": 53.86589813,
    "longitude_deg": -1.660570025,
    "type": "large_airport"
  },
  {
    "name": "Warton Airport",
    "municipality": "Warton",
    "iata_code": "WRT",
    "iso_country": "GB",
    "latitude_deg": 53.745098,
    "longitude_deg": -2.88306,
    "type": "medium_airport"
  },
  {
    "name": "Hawarden Airport",
    "municipality": "Hawarden",
    "iata_code": "CEG",
    "iso_country": "GB",
    "latitude_deg": 53.17810059,
    "longitude_deg": -2.977780104,
    "type": "medium_airport"
  },
  {
    "name": "Newcastle Airport",
    "municipality": "Newcastle",
    "iata_code": "NCL",
    "iso_country": "GB",
    "latitude_deg": 55.03749847,
    "longitude_deg": -1.691669941,
    "type": "large_airport"
  },
  {
    "name": "Durham Tees Valley Airport",
    "municipality": "Durham",
    "iata_code": "MME",
    "iso_country": "GB",
    "latitude_deg": 54.50920105,
    "longitude_deg": -1.429409981,
    "type": "medium_airport"
  },
  {
    "name": "East Midlands Airport",
    "municipality": "Nottingham",
    "iata_code": "EMA",
    "iso_country": "GB",
    "latitude_deg": 52.83110046,
    "longitude_deg": -1.328060031,
    "type": "large_airport"
  },
  {
    "name": "Anglesey Airport",
    "municipality": "Angelsey",
    "iata_code": "VLY",
    "iso_country": "GB",
    "latitude_deg": 53.24810028,
    "longitude_deg": -4.535339832,
    "type": "medium_airport"
  },
  {
    "name": "Kirkwall Airport",
    "municipality": "Orkney Islands",
    "iata_code": "KOI",
    "iso_country": "GB",
    "latitude_deg": 58.95780182,
    "longitude_deg": -2.904999971,
    "type": "medium_airport"
  },
  {
    "name": "Sumburgh Airport",
    "municipality": "Lerwick",
    "iata_code": "LSI",
    "iso_country": "GB",
    "latitude_deg": 59.87889862,
    "longitude_deg": -1.295560002,
    "type": "medium_airport"
  },
  {
    "name": "Wick Airport",
    "municipality": "Wick",
    "iata_code": "WIC",
    "iso_country": "GB",
    "latitude_deg": 58.45890045,
    "longitude_deg": -3.093060017,
    "type": "medium_airport"
  },
  {
    "name": "Aberdeen Dyce Airport",
    "municipality": "Aberdeen",
    "iata_code": "ABZ",
    "iso_country": "GB",
    "latitude_deg": 57.20190048,
    "longitude_deg": -2.197779894,
    "type": "large_airport"
  },
  {
    "name": "Inverness Airport",
    "municipality": "Inverness",
    "iata_code": "INV",
    "iso_country": "GB",
    "latitude_deg": 57.54249954,
    "longitude_deg": -4.047500134,
    "type": "medium_airport"
  },
  {
    "name": "Glasgow International Airport",
    "municipality": "Glasgow",
    "iata_code": "GLA",
    "iso_country": "GB",
    "latitude_deg": 55.87189865,
    "longitude_deg": -4.433060169,
    "type": "large_airport"
  },
  {
    "name": "Edinburgh Airport",
    "municipality": "Edinburgh",
    "iata_code": "EDI",
    "iso_country": "GB",
    "latitude_deg": 55.95000076,
    "longitude_deg": -3.372499943,
    "type": "large_airport"
  },
  {
    "name": "Islay Airport",
    "municipality": "Port Ellen",
    "iata_code": "ILY",
    "iso_country": "GB",
    "latitude_deg": 55.68190002,
    "longitude_deg": -6.256669998,
    "type": "medium_airport"
  },
  {
    "name": "Glasgow Prestwick Airport",
    "municipality": "Glasgow",
    "iata_code": "PIK",
    "iso_country": "GB",
    "latitude_deg": 55.50939941,
    "longitude_deg": -4.586669922,
    "type": "medium_airport"
  },
  {
    "name": "Benbecula Airport",
    "municipality": "Balivanich",
    "iata_code": "BEB",
    "iso_country": "GB",
    "latitude_deg": 57.48109818,
    "longitude_deg": -7.362780094,
    "type": "medium_airport"
  },
  {
    "name": "Scatsta Airport",
    "municipality": "Shetland Islands",
    "iata_code": "SCS",
    "iso_country": "GB",
    "latitude_deg": 60.43280029,
    "longitude_deg": -1.296110034,
    "type": "medium_airport"
  },
  {
    "name": "Dundee Airport",
    "municipality": "Dundee",
    "iata_code": "DND",
    "iso_country": "GB",
    "latitude_deg": 56.45249939,
    "longitude_deg": -3.02583003,
    "type": "medium_airport"
  },
  {
    "name": "Stornoway Airport",
    "municipality": "Stornoway",
    "iata_code": "SYY",
    "iso_country": "GB",
    "latitude_deg": 58.21559906,
    "longitude_deg": -6.331110001,
    "type": "medium_airport"
  },
  {
    "name": "Barra Airport",
    "municipality": "Eoligarry",
    "iata_code": "BRR",
    "iso_country": "GB",
    "latitude_deg": 57.0228,
    "longitude_deg": -7.44306,
    "type": "medium_airport"
  },
  {
    "name": "Tiree Airport",
    "municipality": "Balemartine",
    "iata_code": "TRE",
    "iso_country": "GB",
    "latitude_deg": 56.49919891,
    "longitude_deg": -6.869170189,
    "type": "medium_airport"
  },
  {
    "name": "RAF Kinloss",
    "municipality": "Kinloss",
    "iata_code": "FSS",
    "iso_country": "GB",
    "latitude_deg": 57.6493988,
    "longitude_deg": -3.560640097,
    "type": "medium_airport"
  },
  {
    "name": "RAF Leuchars",
    "municipality": "St. Andrews",
    "iata_code": "ADX",
    "iso_country": "GB",
    "latitude_deg": 56.3728981,
    "longitude_deg": -2.868439913,
    "type": "medium_airport"
  },
  {
    "name": "RAF Lossiemouth",
    "municipality": "Lossiemouth",
    "iata_code": "LMO",
    "iso_country": "GB",
    "latitude_deg": 57.7052002,
    "longitude_deg": -3.339169979,
    "type": "medium_airport"
  },
  {
    "name": "Cambridge Airport",
    "municipality": "Cambridge",
    "iata_code": "CBG",
    "iso_country": "GB",
    "latitude_deg": 52.205002,
    "longitude_deg": 0.175,
    "type": "medium_airport"
  },
  {
    "name": "Norwich International Airport",
    "municipality": "Norwich",
    "iata_code": "NWI",
    "iso_country": "GB",
    "latitude_deg": 52.67580032,
    "longitude_deg": 1.282780051,
    "type": "large_airport"
  },
  {
    "name": "London Stansted Airport",
    "municipality": "London",
    "iata_code": "STN",
    "iso_country": "GB",
    "latitude_deg": 51.88499832,
    "longitude_deg": 0.234999999,
    "type": "large_airport"
  },
  {
    "name": "Exeter International Airport",
    "municipality": "Exeter",
    "iata_code": "EXT",
    "iso_country": "GB",
    "latitude_deg": 50.7344017,
    "longitude_deg": -3.413889885,
    "type": "large_airport"
  },
  {
    "name": "Oxford (Kidlington) Airport",
    "municipality": "Kidlington",
    "iata_code": "OXF",
    "iso_country": "GB",
    "latitude_deg": 51.8368988,
    "longitude_deg": -1.320000052,
    "type": "medium_airport"
  },
  {
    "name": "RAF Benson",
    "municipality": "Benson",
    "iata_code": "BEX",
    "iso_country": "GB",
    "latitude_deg": 51.61640167,
    "longitude_deg": -1.095829964,
    "type": "medium_airport"
  },
  {
    "name": "RAF Lakenheath",
    "municipality": "Lakenheath",
    "iata_code": "LKZ",
    "iso_country": "GB",
    "latitude_deg": 52.40930176,
    "longitude_deg": 0.56099999,
    "type": "large_airport"
  },
  {
    "name": "RAF Mildenhall",
    "municipality": "Mildenhall",
    "iata_code": "MHZ",
    "iso_country": "GB",
    "latitude_deg": 52.36190033,
    "longitude_deg": 0.486405998,
    "type": "large_airport"
  },
  {
    "name": "RAF Wyton",
    "municipality": "St. Ives",
    "iata_code": "QUY",
    "iso_country": "GB",
    "latitude_deg": 52.35720062,
    "longitude_deg": -0.107832998,
    "type": "medium_airport"
  },
  {
    "name": "RAF Fairford",
    "municipality": "Fairford",
    "iata_code": "FFD",
    "iso_country": "GB",
    "latitude_deg": 51.68220139,
    "longitude_deg": -1.790030003,
    "type": "large_airport"
  },
  {
    "name": "RAF Brize Norton",
    "municipality": "Brize Norton",
    "iata_code": "BZZ",
    "iso_country": "GB",
    "latitude_deg": 51.75,
    "longitude_deg": -1.58362,
    "type": "large_airport"
  },
  {
    "name": "RAF Odiham",
    "municipality": "Odiham",
    "iata_code": "ODH",
    "iso_country": "GB",
    "latitude_deg": 51.23410034,
    "longitude_deg": -0.942825019,
    "type": "medium_airport"
  },
  {
    "name": "RAF Northolt",
    "municipality": "London",
    "iata_code": "NHT",
    "iso_country": "GB",
    "latitude_deg": 51.5530014,
    "longitude_deg": -0.418166995,
    "type": "medium_airport"
  },
  {
    "name": "RAF Coningsby",
    "municipality": "Coningsby",
    "iata_code": "QCY",
    "iso_country": "GB",
    "latitude_deg": 53.0929985,
    "longitude_deg": -0.166014001,
    "type": "medium_airport"
  },
  {
    "name": "RAF Honington",
    "municipality": "Thetford",
    "iata_code": "BEQ",
    "iso_country": "GB",
    "latitude_deg": 52.34260178,
    "longitude_deg": 0.772939026,
    "type": "medium_airport"
  },
  {
    "name": "RAF Scampton",
    "municipality": "Scampton",
    "iata_code": "SQZ",
    "iso_country": "GB",
    "latitude_deg": 53.30780029,
    "longitude_deg": -0.550832987,
    "type": "medium_airport"
  },
  {
    "name": "RAF Linton-On-Ouse",
    "municipality": "Linton-On-Ouse",
    "iata_code": "HRT",
    "iso_country": "GB",
    "latitude_deg": 54.0489006,
    "longitude_deg": -1.252750039,
    "type": "medium_airport"
  },
  {
    "name": "RAF Waddington",
    "municipality": "Waddington",
    "iata_code": "WTN",
    "iso_country": "GB",
    "latitude_deg": 53.16619873,
    "longitude_deg": -0.523810983,
    "type": "medium_airport"
  },
  {
    "name": "RAF Marham",
    "municipality": "Marham",
    "iata_code": "KNF",
    "iso_country": "GB",
    "latitude_deg": 52.648395,
    "longitude_deg": 0.550692,
    "type": "medium_airport"
  },
  {
    "name": "Amsterdam Airport Schiphol",
    "municipality": "Amsterdam",
    "iata_code": "AMS",
    "iso_country": "NL",
    "latitude_deg": 52.308601,
    "longitude_deg": 4.76389,
    "type": "large_airport"
  },
  {
    "name": "Maastricht Aachen Airport",
    "municipality": "Maastricht",
    "iata_code": "MST",
    "iso_country": "NL",
    "latitude_deg": 50.911701,
    "longitude_deg": 5.77014,
    "type": "medium_airport"
  },
  {
    "name": "Eindhoven Airport",
    "municipality": "Eindhoven",
    "iata_code": "EIN",
    "iso_country": "NL",
    "latitude_deg": 51.45009995,
    "longitude_deg": 5.374529839,
    "type": "large_airport"
  },
  {
    "name": "Eelde Airport",
    "municipality": "Groningen",
    "iata_code": "GRQ",
    "iso_country": "NL",
    "latitude_deg": 53.11970139,
    "longitude_deg": 6.579440117,
    "type": "medium_airport"
  },
  {
    "name": "De Kooy Airport",
    "municipality": "Den Helder",
    "iata_code": "DHR",
    "iso_country": "NL",
    "latitude_deg": 52.92340088,
    "longitude_deg": 4.780620098,
    "type": "medium_airport"
  },
  {
    "name": "Lelystad Airport",
    "municipality": "Lelystad",
    "iata_code": "LEY",
    "iso_country": "NL",
    "latitude_deg": 52.4603,
    "longitude_deg": 5.52722,
    "type": "medium_airport"
  },
  {
    "name": "Rotterdam The Hague Airport",
    "municipality": "Rotterdam",
    "iata_code": "RTM",
    "iso_country": "NL",
    "latitude_deg": 51.956902,
    "longitude_deg": 4.43722,
    "type": "medium_airport"
  },
  {
    "name": "Twente Airport",
    "municipality": "Enschede",
    "iata_code": "ENS",
    "iso_country": "NL",
    "latitude_deg": 52.275833,
    "longitude_deg": 6.889167,
    "type": "medium_airport"
  },
  {
    "name": "Cork Airport",
    "municipality": "Cork",
    "iata_code": "ORK",
    "iso_country": "IE",
    "latitude_deg": 51.84130096,
    "longitude_deg": -8.491109848,
    "type": "large_airport"
  },
  {
    "name": "Galway Airport",
    "municipality": "Galway",
    "iata_code": "GWY",
    "iso_country": "IE",
    "latitude_deg": 53.30020142,
    "longitude_deg": -8.941590309,
    "type": "medium_airport"
  },
  {
    "name": "Donegal Airport",
    "municipality": "Donegal",
    "iata_code": "CFN",
    "iso_country": "IE",
    "latitude_deg": 55.0442009,
    "longitude_deg": -8.340999603,
    "type": "medium_airport"
  },
  {
    "name": "Dublin Airport",
    "municipality": "Dublin",
    "iata_code": "DUB",
    "iso_country": "IE",
    "latitude_deg": 53.421299,
    "longitude_deg": -6.27007,
    "type": "large_airport"
  },
  {
    "name": "Ireland West Knock Airport",
    "municipality": "Charleston",
    "iata_code": "NOC",
    "iso_country": "IE",
    "latitude_deg": 53.91030121,
    "longitude_deg": -8.818490028,
    "type": "medium_airport"
  },
  {
    "name": "Kerry Airport",
    "municipality": "Killarney",
    "iata_code": "KIR",
    "iso_country": "IE",
    "latitude_deg": 52.18090057,
    "longitude_deg": -9.523779869,
    "type": "medium_airport"
  },
  {
    "name": "Shannon Airport",
    "municipality": "Shannon",
    "iata_code": "SNN",
    "iso_country": "IE",
    "latitude_deg": 52.702,
    "longitude_deg": -8.92482,
    "type": "large_airport"
  },
  {
    "name": "Sligo Airport",
    "municipality": "Sligo",
    "iata_code": "SXL",
    "iso_country": "IE",
    "latitude_deg": 54.28020096,
    "longitude_deg": -8.599209785,
    "type": "medium_airport"
  },
  {
    "name": "Waterford Airport",
    "municipality": "Waterford",
    "iata_code": "WAT",
    "iso_country": "IE",
    "latitude_deg": 52.18719864,
    "longitude_deg": -7.086959839,
    "type": "medium_airport"
  },
  {
    "name": "Aarhus Airport",
    "municipality": "Aarhus",
    "iata_code": "AAR",
    "iso_country": "DK",
    "latitude_deg": 56.29999924,
    "longitude_deg": 10.61900043,
    "type": "medium_airport"
  },
  {
    "name": "Billund Airport",
    "municipality": "Billund",
    "iata_code": "BLL",
    "iso_country": "DK",
    "latitude_deg": 55.74029922,
    "longitude_deg": 9.151780128,
    "type": "large_airport"
  },
  {
    "name": "Copenhagen Kastrup Airport",
    "municipality": "Copenhagen",
    "iata_code": "CPH",
    "iso_country": "DK",
    "latitude_deg": 55.61790085,
    "longitude_deg": 12.65600014,
    "type": "large_airport"
  },
  {
    "name": "Esbjerg Airport",
    "municipality": "Esbjerg",
    "iata_code": "EBJ",
    "iso_country": "DK",
    "latitude_deg": 55.525902,
    "longitude_deg": 8.5534,
    "type": "medium_airport"
  },
  {
    "name": "Karup Airport",
    "municipality": "Karup",
    "iata_code": "KRP",
    "iso_country": "DK",
    "latitude_deg": 56.29750061,
    "longitude_deg": 9.124629974,
    "type": "medium_airport"
  },
  {
    "name": "Lolland Falster Maribo Airport",
    "municipality": "Lolland Falster / Maribo",
    "iata_code": "MRW",
    "iso_country": "DK",
    "latitude_deg": 54.699299,
    "longitude_deg": 11.4401,
    "type": "medium_airport"
  },
  {
    "name": "Odense Airport",
    "municipality": "Odense",
    "iata_code": "ODE",
    "iso_country": "DK",
    "latitude_deg": 55.47669983,
    "longitude_deg": 10.33090019,
    "type": "medium_airport"
  },
  {
    "name": "Copenhagen Roskilde Airport",
    "municipality": "Copenhagen",
    "iata_code": "RKE",
    "iso_country": "DK",
    "latitude_deg": 55.58560181,
    "longitude_deg": 12.13140011,
    "type": "medium_airport"
  },
  {
    "name": "Bornholm Airport",
    "municipality": "R\u00f8nne",
    "iata_code": "RNN",
    "iso_country": "DK",
    "latitude_deg": 55.06330109,
    "longitude_deg": 14.75959969,
    "type": "medium_airport"
  },
  {
    "name": "S\u00f8nderborg Airport",
    "municipality": "S\u00f8nderborg",
    "iata_code": "SGD",
    "iso_country": "DK",
    "latitude_deg": 54.96440125,
    "longitude_deg": 9.791729927,
    "type": "medium_airport"
  },
  {
    "name": "Sindal Airport",
    "municipality": "Sindal",
    "iata_code": "CNL",
    "iso_country": "DK",
    "latitude_deg": 57.503502,
    "longitude_deg": 10.2294,
    "type": "medium_airport"
  },
  {
    "name": "Skive Airport",
    "municipality": "Skive",
    "iata_code": "SQW",
    "iso_country": "DK",
    "latitude_deg": 56.55020142,
    "longitude_deg": 9.172980309,
    "type": "medium_airport"
  },
  {
    "name": "Thisted Airport",
    "municipality": "Thisted",
    "iata_code": "TED",
    "iso_country": "DK",
    "latitude_deg": 57.06880188,
    "longitude_deg": 8.705220222,
    "type": "medium_airport"
  },
  {
    "name": "Stauning Airport",
    "municipality": "Skjern / Ringk\u00f8bing",
    "iata_code": "STA",
    "iso_country": "DK",
    "latitude_deg": 55.99010086,
    "longitude_deg": 8.353910446,
    "type": "medium_airport"
  },
  {
    "name": "Aalborg Airport",
    "municipality": "Aalborg",
    "iata_code": "AAL",
    "iso_country": "DK",
    "latitude_deg": 57.09275891,
    "longitude_deg": 9.849243164,
    "type": "large_airport"
  },
  {
    "name": "Luxembourg-Findel International Airport",
    "municipality": "Luxembourg",
    "iata_code": "LUX",
    "iso_country": "LU",
    "latitude_deg": 49.6233333,
    "longitude_deg": 6.2044444,
    "type": "large_airport"
  },
  {
    "name": "\u00c5lesund Airport",
    "municipality": "\u00c5lesund",
    "iata_code": "AES",
    "iso_country": "NO",
    "latitude_deg": 62.5625,
    "longitude_deg": 6.119699955,
    "type": "medium_airport"
  },
  {
    "name": "And\u00f8ya Airport",
    "municipality": "Andenes",
    "iata_code": "ANX",
    "iso_country": "NO",
    "latitude_deg": 69.29250336,
    "longitude_deg": 16.14419937,
    "type": "medium_airport"
  },
  {
    "name": "Alta Airport",
    "municipality": "Alta",
    "iata_code": "ALF",
    "iso_country": "NO",
    "latitude_deg": 69.97609711,
    "longitude_deg": 23.37170029,
    "type": "medium_airport"
  },
  {
    "name": "Br\u00f8nn\u00f8ysund Airport",
    "municipality": "Br\u00f8nn\u00f8y",
    "iata_code": "BNN",
    "iso_country": "NO",
    "latitude_deg": 65.46109772,
    "longitude_deg": 12.21749973,
    "type": "medium_airport"
  },
  {
    "name": "Bod\u00f8 Airport",
    "municipality": "Bod\u00f8",
    "iata_code": "BOO",
    "iso_country": "NO",
    "latitude_deg": 67.26920319,
    "longitude_deg": 14.36530018,
    "type": "large_airport"
  },
  {
    "name": "Bergen Airport Flesland",
    "municipality": "Bergen",
    "iata_code": "BGO",
    "iso_country": "NO",
    "latitude_deg": 60.29339981,
    "longitude_deg": 5.218140125,
    "type": "large_airport"
  },
  {
    "name": "B\u00e5tsfjord Airport",
    "municipality": "B\u00e5tsfjord",
    "iata_code": "BJF",
    "iso_country": "NO",
    "latitude_deg": 70.60050201,
    "longitude_deg": 29.69140053,
    "type": "medium_airport"
  },
  {
    "name": "Berlev\u00e5g Airport",
    "municipality": "Berlev\u00e5g",
    "iata_code": "BVG",
    "iso_country": "NO",
    "latitude_deg": 70.871399,
    "longitude_deg": 29.034201,
    "type": "medium_airport"
  },
  {
    "name": "Kristiansand Airport",
    "municipality": "Kjevik",
    "iata_code": "KRS",
    "iso_country": "NO",
    "latitude_deg": 58.204201,
    "longitude_deg": 8.08537,
    "type": "medium_airport"
  },
  {
    "name": "Bardufoss Airport",
    "municipality": "M\u00e5lselv",
    "iata_code": "BDU",
    "iso_country": "NO",
    "latitude_deg": 69.05580139,
    "longitude_deg": 18.54039955,
    "type": "medium_airport"
  },
  {
    "name": "Harstad/Narvik Airport, Evenes",
    "municipality": "Evenes",
    "iata_code": "EVE",
    "iso_country": "NO",
    "latitude_deg": 68.49130249,
    "longitude_deg": 16.67810059,
    "type": "medium_airport"
  },
  {
    "name": "Leirin Airport",
    "municipality": null,
    "iata_code": "VDB",
    "iso_country": "NO",
    "latitude_deg": 61.0155983,
    "longitude_deg": 9.288060188,
    "type": "medium_airport"
  },
  {
    "name": "Flor\u00f8 Airport",
    "municipality": "Flor\u00f8",
    "iata_code": "FRO",
    "iso_country": "NO",
    "latitude_deg": 61.58359909,
    "longitude_deg": 5.024720192,
    "type": "medium_airport"
  },
  {
    "name": "Oslo Gardermoen Airport",
    "municipality": "Oslo",
    "iata_code": "OSL",
    "iso_country": "NO",
    "latitude_deg": 60.19390106,
    "longitude_deg": 11.10039997,
    "type": "large_airport"
  },
  {
    "name": "Haugesund Airport",
    "municipality": "Karm\u00f8y",
    "iata_code": "HAU",
    "iso_country": "NO",
    "latitude_deg": 59.34529877,
    "longitude_deg": 5.208360195,
    "type": "medium_airport"
  },
  {
    "name": "Hammerfest Airport",
    "municipality": "Hammerfest",
    "iata_code": "HFT",
    "iso_country": "NO",
    "latitude_deg": 70.67970276,
    "longitude_deg": 23.66860008,
    "type": "medium_airport"
  },
  {
    "name": "Valan Airport",
    "municipality": "Honningsv\u00e5g",
    "iata_code": "HVG",
    "iso_country": "NO",
    "latitude_deg": 71.00969696,
    "longitude_deg": 25.98360062,
    "type": "medium_airport"
  },
  {
    "name": "Kristiansund Airport (Kvernberget)",
    "municipality": "Kvernberget",
    "iata_code": "KSU",
    "iso_country": "NO",
    "latitude_deg": 63.11180115,
    "longitude_deg": 7.824520111,
    "type": "medium_airport"
  },
  {
    "name": "Kirkenes Airport (H\u00f8ybuktmoen)",
    "municipality": "Kirkenes",
    "iata_code": "KKN",
    "iso_country": "NO",
    "latitude_deg": 69.72579956,
    "longitude_deg": 29.8913002,
    "type": "medium_airport"
  },
  {
    "name": "Leknes Airport",
    "municipality": "Leknes",
    "iata_code": "LKN",
    "iso_country": "NO",
    "latitude_deg": 68.15249634,
    "longitude_deg": 13.6093998,
    "type": "medium_airport"
  },
  {
    "name": "Mehamn Airport",
    "municipality": "Mehamn",
    "iata_code": "MEH",
    "iso_country": "NO",
    "latitude_deg": 71.02970123,
    "longitude_deg": 27.82670021,
    "type": "medium_airport"
  },
  {
    "name": "Molde Airport",
    "municipality": "\u00c5r\u00f8",
    "iata_code": "MOL",
    "iso_country": "NO",
    "latitude_deg": 62.74470139,
    "longitude_deg": 7.262499809,
    "type": "medium_airport"
  },
  {
    "name": "Mosj\u00f8en Airport (Kj\u00e6rstad)",
    "municipality": null,
    "iata_code": "MJF",
    "iso_country": "NO",
    "latitude_deg": 65.78399658,
    "longitude_deg": 13.21490002,
    "type": "medium_airport"
  },
  {
    "name": "Banak Airport",
    "municipality": "Lakselv",
    "iata_code": "LKL",
    "iso_country": "NO",
    "latitude_deg": 70.06880188,
    "longitude_deg": 24.9734993,
    "type": "medium_airport"
  },
  {
    "name": "Narvik Framnes Airport",
    "municipality": "Narvik",
    "iata_code": "NVK",
    "iso_country": "NO",
    "latitude_deg": 68.43689728,
    "longitude_deg": 17.38669968,
    "type": "medium_airport"
  },
  {
    "name": "Notodden Airport",
    "municipality": "Notodden",
    "iata_code": "NTB",
    "iso_country": "NO",
    "latitude_deg": 59.565701,
    "longitude_deg": 9.21222,
    "type": "medium_airport"
  },
  {
    "name": "\u00d8rland Airport",
    "municipality": "\u00d8rland",
    "iata_code": "OLA",
    "iso_country": "NO",
    "latitude_deg": 63.69889832,
    "longitude_deg": 9.604000092,
    "type": "medium_airport"
  },
  {
    "name": "\u00d8rsta-Volda Airport, Hovden",
    "municipality": "\u00d8rsta",
    "iata_code": "HOV",
    "iso_country": "NO",
    "latitude_deg": 62.18000031,
    "longitude_deg": 6.074100018,
    "type": "medium_airport"
  },
  {
    "name": "Mo i Rana Airport, R\u00f8ssvoll",
    "municipality": "Mo i Rana",
    "iata_code": "MQN",
    "iso_country": "NO",
    "latitude_deg": 66.36389923,
    "longitude_deg": 14.30140018,
    "type": "medium_airport"
  },
  {
    "name": "R\u00f8rvik Airport, Ryum",
    "municipality": "R\u00f8rvik",
    "iata_code": "RVK",
    "iso_country": "NO",
    "latitude_deg": 64.83830261,
    "longitude_deg": 11.14610004,
    "type": "medium_airport"
  },
  {
    "name": "R\u00f8ros Airport",
    "municipality": "R\u00f8ros",
    "iata_code": "RRS",
    "iso_country": "NO",
    "latitude_deg": 62.57839966,
    "longitude_deg": 11.34230042,
    "type": "medium_airport"
  },
  {
    "name": "Moss Airport, Rygge",
    "municipality": "Oslo",
    "iata_code": "RYG",
    "iso_country": "NO",
    "latitude_deg": 59.378817,
    "longitude_deg": 10.785439,
    "type": "medium_airport"
  },
  {
    "name": "Svalbard Airport, Longyear",
    "municipality": "Longyearbyen",
    "iata_code": "LYR",
    "iso_country": "NO",
    "latitude_deg": 78.24610138,
    "longitude_deg": 15.46560001,
    "type": "medium_airport"
  },
  {
    "name": "Svolv\u00e6r Helle Airport",
    "municipality": "Svolv\u00e6r",
    "iata_code": "SVJ",
    "iso_country": "NO",
    "latitude_deg": 68.24330139,
    "longitude_deg": 14.66919994,
    "type": "medium_airport"
  },
  {
    "name": "Stokmarknes Skagen Airport",
    "municipality": "Hadsel",
    "iata_code": "SKN",
    "iso_country": "NO",
    "latitude_deg": 68.5788269,
    "longitude_deg": 15.03341675,
    "type": "medium_airport"
  },
  {
    "name": "Skien Airport",
    "municipality": "Geiteryggen",
    "iata_code": "SKE",
    "iso_country": "NO",
    "latitude_deg": 59.18500137,
    "longitude_deg": 9.566940308,
    "type": "medium_airport"
  },
  {
    "name": "Stord Airport",
    "municipality": "Leirvik",
    "iata_code": "SRP",
    "iso_country": "NO",
    "latitude_deg": 59.79190063,
    "longitude_deg": 5.340849876,
    "type": "medium_airport"
  },
  {
    "name": "S\u00f8rkjosen Airport",
    "municipality": "S\u00f8rkjosen",
    "iata_code": "SOJ",
    "iso_country": "NO",
    "latitude_deg": 69.78679657,
    "longitude_deg": 20.95940018,
    "type": "medium_airport"
  },
  {
    "name": "Vard\u00f8 Airport, Svartnes",
    "municipality": "Vard\u00f8",
    "iata_code": "VAW",
    "iso_country": "NO",
    "latitude_deg": 70.35540009,
    "longitude_deg": 31.04490089,
    "type": "medium_airport"
  },
  {
    "name": "Sandnessj\u00f8en Airport (Stokka)",
    "municipality": "Alstahaug",
    "iata_code": "SSJ",
    "iso_country": "NO",
    "latitude_deg": 65.95680237,
    "longitude_deg": 12.46889973,
    "type": "medium_airport"
  },
  {
    "name": "Troms\u00f8 Airport",
    "municipality": "Troms\u00f8",
    "iata_code": "TOS",
    "iso_country": "NO",
    "latitude_deg": 69.6832962,
    "longitude_deg": 18.91889954,
    "type": "large_airport"
  },
  {
    "name": "Sandefjord Airport, Torp",
    "municipality": "Torp",
    "iata_code": "TRF",
    "iso_country": "NO",
    "latitude_deg": 59.18669891,
    "longitude_deg": 10.25860024,
    "type": "medium_airport"
  },
  {
    "name": "Trondheim Airport V\u00e6rnes",
    "municipality": "Trondheim",
    "iata_code": "TRD",
    "iso_country": "NO",
    "latitude_deg": 63.4578018,
    "longitude_deg": 10.9239998,
    "type": "large_airport"
  },
  {
    "name": "Vads\u00f8 Airport",
    "municipality": "Vads\u00f8",
    "iata_code": "VDS",
    "iso_country": "NO",
    "latitude_deg": 70.06529999,
    "longitude_deg": 29.84469986,
    "type": "medium_airport"
  },
  {
    "name": "Stavanger Airport Sola",
    "municipality": "Stavanger",
    "iata_code": "SVG",
    "iso_country": "NO",
    "latitude_deg": 58.87670135,
    "longitude_deg": 5.63778019,
    "type": "large_airport"
  },
  {
    "name": "Bia\u0142a Podlaska Airfield",
    "municipality": "Bia\u0142a Podlaska",
    "iata_code": "BXP",
    "iso_country": "PL",
    "latitude_deg": 52.00078,
    "longitude_deg": 23.1325278,
    "type": "medium_airport"
  },
  {
    "name": "Bydgoszcz Ignacy Jan Paderewski Airport",
    "municipality": "Bydgoszcz",
    "iata_code": "BZG",
    "iso_country": "PL",
    "latitude_deg": 53.09680176,
    "longitude_deg": 17.97769928,
    "type": "medium_airport"
  },
  {
    "name": "Gda\u0144sk Lech Wa\u0142\u0119sa Airport",
    "municipality": "Gda\u0144sk",
    "iata_code": "GDN",
    "iso_country": "PL",
    "latitude_deg": 54.37760162,
    "longitude_deg": 18.46619987,
    "type": "large_airport"
  },
  {
    "name": "Krak\u00f3w John Paul II International Airport",
    "municipality": "Krak\u00f3w",
    "iata_code": "KRK",
    "iso_country": "PL",
    "latitude_deg": 50.077702,
    "longitude_deg": 19.7848,
    "type": "large_airport"
  },
  {
    "name": "Katowice International Airport",
    "municipality": "Katowice",
    "iata_code": "KTW",
    "iso_country": "PL",
    "latitude_deg": 50.4743,
    "longitude_deg": 19.08,
    "type": "large_airport"
  },
  {
    "name": "\u0141\u00f3d\u017a W\u0142adys\u0142aw Reymont Airport",
    "municipality": "\u0141\u00f3d\u017a",
    "iata_code": "LCJ",
    "iso_country": "PL",
    "latitude_deg": 51.72190094,
    "longitude_deg": 19.3980999,
    "type": "medium_airport"
  },
  {
    "name": "Modlin Airport",
    "municipality": "Warsaw",
    "iata_code": "WMI",
    "iso_country": "PL",
    "latitude_deg": 52.451099,
    "longitude_deg": 20.6518,
    "type": "large_airport"
  },
  {
    "name": "Pozna\u0144-\u0141awica Airport",
    "municipality": "Pozna\u0144",
    "iata_code": "POZ",
    "iso_country": "PL",
    "latitude_deg": 52.42100143,
    "longitude_deg": 16.82629967,
    "type": "large_airport"
  },
  {
    "name": "Radom Airport",
    "municipality": "Radom",
    "iata_code": "RDO",
    "iso_country": "PL",
    "latitude_deg": 51.3891983,
    "longitude_deg": 21.21330071,
    "type": "medium_airport"
  },
  {
    "name": "Rzesz\u00f3w-Jasionka Airport",
    "municipality": "Rzesz\u00f3w",
    "iata_code": "RZE",
    "iso_country": "PL",
    "latitude_deg": 50.11000061,
    "longitude_deg": 22.0189991,
    "type": "medium_airport"
  },
  {
    "name": "Szczecin-Goleni\u00f3w \"Solidarno\u015b\u0107\" Airport",
    "municipality": "Goleniow",
    "iata_code": "SZZ",
    "iso_country": "PL",
    "latitude_deg": 53.58470154,
    "longitude_deg": 14.90219975,
    "type": "medium_airport"
  },
  {
    "name": "Olsztyn-Mazury Airport",
    "municipality": "Olsztyn",
    "iata_code": "SZY",
    "iso_country": "PL",
    "latitude_deg": 53.481899,
    "longitude_deg": 20.9377,
    "type": "medium_airport"
  },
  {
    "name": "Warsaw Chopin Airport",
    "municipality": "Warsaw",
    "iata_code": "WAW",
    "iso_country": "PL",
    "latitude_deg": 52.16569901,
    "longitude_deg": 20.96710014,
    "type": "large_airport"
  },
  {
    "name": "Copernicus Wroc\u0142aw Airport",
    "municipality": "Wroc\u0142aw",
    "iata_code": "WRO",
    "iso_country": "PL",
    "latitude_deg": 51.10269928,
    "longitude_deg": 16.88579941,
    "type": "large_airport"
  },
  {
    "name": "Zielona G\u00f3ra-Babimost Airport",
    "municipality": "Babimost",
    "iata_code": "IEG",
    "iso_country": "PL",
    "latitude_deg": 52.13850021,
    "longitude_deg": 15.7986002,
    "type": "medium_airport"
  },
  {
    "name": "Ronneby Airport",
    "municipality": null,
    "iata_code": "RNB",
    "iso_country": "SE",
    "latitude_deg": 56.26670074,
    "longitude_deg": 15.26500034,
    "type": "medium_airport"
  },
  {
    "name": "Gothenburg-Landvetter Airport",
    "municipality": "Gothenburg",
    "iata_code": "GOT",
    "iso_country": "SE",
    "latitude_deg": 57.66279984,
    "longitude_deg": 12.27980042,
    "type": "large_airport"
  },
  {
    "name": "J\u00f6nk\u00f6ping Airport",
    "municipality": "J\u00f6nk\u00f6ping",
    "iata_code": "JKG",
    "iso_country": "SE",
    "latitude_deg": 57.75759888,
    "longitude_deg": 14.06869984,
    "type": "medium_airport"
  },
  {
    "name": "Gothenburg City Airport",
    "municipality": "Gothenburg",
    "iata_code": "GSE",
    "iso_country": "SE",
    "latitude_deg": 57.7747,
    "longitude_deg": 11.8704,
    "type": "medium_airport"
  },
  {
    "name": "Sk\u00f6vde Airport",
    "municipality": "Sk\u00f6vde",
    "iata_code": "KVB",
    "iso_country": "SE",
    "latitude_deg": 58.45640182,
    "longitude_deg": 13.97270012,
    "type": "medium_airport"
  },
  {
    "name": "Trollh\u00e4ttan-V\u00e4nersborg Airport",
    "municipality": "Trollh\u00e4ttan",
    "iata_code": "THN",
    "iso_country": "SE",
    "latitude_deg": 58.31809998,
    "longitude_deg": 12.34500027,
    "type": "medium_airport"
  },
  {
    "name": "Karlskoga Airport",
    "municipality": null,
    "iata_code": "KSK",
    "iso_country": "SE",
    "latitude_deg": 59.34590149,
    "longitude_deg": 14.49590015,
    "type": "medium_airport"
  },
  {
    "name": "Mora Airport",
    "municipality": "Mora",
    "iata_code": "MXX",
    "iso_country": "SE",
    "latitude_deg": 60.957901,
    "longitude_deg": 14.5114,
    "type": "medium_airport"
  },
  {
    "name": "Stockholm Skavsta Airport",
    "municipality": "Stockholm / Nyk\u00f6ping",
    "iata_code": "NYO",
    "iso_country": "SE",
    "latitude_deg": 58.78860092,
    "longitude_deg": 16.91220093,
    "type": "medium_airport"
  },
  {
    "name": "Kristianstad Airport",
    "municipality": "Kristianstad",
    "iata_code": "KID",
    "iso_country": "SE",
    "latitude_deg": 55.92169952,
    "longitude_deg": 14.08549976,
    "type": "medium_airport"
  },
  {
    "name": "Kalmar Airport",
    "municipality": null,
    "iata_code": "KLR",
    "iso_country": "SE",
    "latitude_deg": 56.6855011,
    "longitude_deg": 16.28759956,
    "type": "medium_airport"
  },
  {
    "name": "Malm\u00f6 Sturup Airport",
    "municipality": "Malm\u00f6",
    "iata_code": "MMX",
    "iso_country": "SE",
    "latitude_deg": 55.53630536,
    "longitude_deg": 13.37619781,
    "type": "large_airport"
  },
  {
    "name": "Halmstad Airport",
    "municipality": "Halmstad",
    "iata_code": "HAD",
    "iso_country": "SE",
    "latitude_deg": 56.69110107,
    "longitude_deg": 12.82019997,
    "type": "medium_airport"
  },
  {
    "name": "V\u00e4xj\u00f6 Kronoberg Airport",
    "municipality": "V\u00e4xj\u00f6",
    "iata_code": "VXO",
    "iso_country": "SE",
    "latitude_deg": 56.92910004,
    "longitude_deg": 14.72799969,
    "type": "medium_airport"
  },
  {
    "name": "Sveg Airport",
    "municipality": null,
    "iata_code": "EVG",
    "iso_country": "SE",
    "latitude_deg": 62.04779816,
    "longitude_deg": 14.4229002,
    "type": "medium_airport"
  },
  {
    "name": "G\u00e4llivare Airport",
    "municipality": "G\u00e4llivare",
    "iata_code": "GEV",
    "iso_country": "SE",
    "latitude_deg": 67.13240051,
    "longitude_deg": 20.81459999,
    "type": "medium_airport"
  },
  {
    "name": "Kramfors Sollefte\u00e5 Airport",
    "municipality": "Kramfors / Sollefte\u00e5",
    "iata_code": "KRF",
    "iso_country": "SE",
    "latitude_deg": 63.04859924,
    "longitude_deg": 17.76889992,
    "type": "medium_airport"
  },
  {
    "name": "Lycksele Airport",
    "municipality": null,
    "iata_code": "LYC",
    "iso_country": "SE",
    "latitude_deg": 64.5483017,
    "longitude_deg": 18.71619987,
    "type": "medium_airport"
  },
  {
    "name": "Sundsvall-H\u00e4rn\u00f6sand Airport",
    "municipality": "Sundsvall/ H\u00e4rn\u00f6sand",
    "iata_code": "SDL",
    "iso_country": "SE",
    "latitude_deg": 62.52809906,
    "longitude_deg": 17.44389915,
    "type": "medium_airport"
  },
  {
    "name": "\u00d6rnsk\u00f6ldsvik Airport",
    "municipality": "\u00d6rnsk\u00f6ldsvik",
    "iata_code": "OER",
    "iso_country": "SE",
    "latitude_deg": 63.40829849,
    "longitude_deg": 18.98999977,
    "type": "medium_airport"
  },
  {
    "name": "Kiruna Airport",
    "municipality": "Kiruna",
    "iata_code": "KRN",
    "iso_country": "SE",
    "latitude_deg": 67.8219986,
    "longitude_deg": 20.33679962,
    "type": "medium_airport"
  },
  {
    "name": "Skellefte\u00e5 Airport",
    "municipality": "Skellefte\u00e5",
    "iata_code": "SFT",
    "iso_country": "SE",
    "latitude_deg": 64.62480164,
    "longitude_deg": 21.07690048,
    "type": "medium_airport"
  },
  {
    "name": "Ume\u00e5 Airport",
    "municipality": "Ume\u00e5",
    "iata_code": "UME",
    "iso_country": "SE",
    "latitude_deg": 63.79180145,
    "longitude_deg": 20.28280067,
    "type": "medium_airport"
  },
  {
    "name": "Vilhelmina Airport",
    "municipality": null,
    "iata_code": "VHM",
    "iso_country": "SE",
    "latitude_deg": 64.57910156,
    "longitude_deg": 16.83359909,
    "type": "medium_airport"
  },
  {
    "name": "Arvidsjaur Airport",
    "municipality": "Arvidsjaur",
    "iata_code": "AJR",
    "iso_country": "SE",
    "latitude_deg": 65.59030151,
    "longitude_deg": 19.28190041,
    "type": "medium_airport"
  },
  {
    "name": "S\u00f6derhamn Airport",
    "municipality": "S\u00f6derhamn",
    "iata_code": "SOO",
    "iso_country": "SE",
    "latitude_deg": 61.26150131,
    "longitude_deg": 17.09910011,
    "type": "medium_airport"
  },
  {
    "name": "\u00c5re \u00d6stersund Airport",
    "municipality": "\u00d6stersund",
    "iata_code": "OSD",
    "iso_country": "SE",
    "latitude_deg": 63.19440079,
    "longitude_deg": 14.50030041,
    "type": "medium_airport"
  },
  {
    "name": "\u00d6rebro Airport",
    "municipality": "\u00d6rebro",
    "iata_code": "ORB",
    "iso_country": "SE",
    "latitude_deg": 59.22370148,
    "longitude_deg": 15.03800011,
    "type": "medium_airport"
  },
  {
    "name": "Hagfors Airport",
    "municipality": null,
    "iata_code": "HFS",
    "iso_country": "SE",
    "latitude_deg": 60.02009964,
    "longitude_deg": 13.57890034,
    "type": "medium_airport"
  },
  {
    "name": "Karlstad Airport",
    "municipality": "Karlstad",
    "iata_code": "KSD",
    "iso_country": "SE",
    "latitude_deg": 59.44469833,
    "longitude_deg": 13.33740044,
    "type": "medium_airport"
  },
  {
    "name": "Stockholm V\u00e4ster\u00e5s Airport",
    "municipality": "Stockholm / V\u00e4ster\u00e5s",
    "iata_code": "VST",
    "iso_country": "SE",
    "latitude_deg": 59.58940125,
    "longitude_deg": 16.63360023,
    "type": "medium_airport"
  },
  {
    "name": "Lule\u00e5 Airport",
    "municipality": "Lule\u00e5",
    "iata_code": "LLA",
    "iso_country": "SE",
    "latitude_deg": 65.54380035,
    "longitude_deg": 22.12199974,
    "type": "large_airport"
  },
  {
    "name": "Stockholm-Arlanda Airport",
    "municipality": "Stockholm",
    "iata_code": "ARN",
    "iso_country": "SE",
    "latitude_deg": 59.65190125,
    "longitude_deg": 17.91860008,
    "type": "large_airport"
  },
  {
    "name": "Stockholm-Bromma Airport",
    "municipality": "Stockholm",
    "iata_code": "BMA",
    "iso_country": "SE",
    "latitude_deg": 59.35440063,
    "longitude_deg": 17.94169998,
    "type": "medium_airport"
  },
  {
    "name": "Borlange Airport",
    "municipality": null,
    "iata_code": "BLE",
    "iso_country": "SE",
    "latitude_deg": 60.42200089,
    "longitude_deg": 15.51519966,
    "type": "medium_airport"
  },
  {
    "name": "G\u00e4vle Sandviken Airport",
    "municipality": "G\u00e4vle / Sandviken",
    "iata_code": "GVX",
    "iso_country": "SE",
    "latitude_deg": 60.59329987,
    "longitude_deg": 16.95140076,
    "type": "medium_airport"
  },
  {
    "name": "Link\u00f6ping City Airport",
    "municipality": "Link\u00f6ping",
    "iata_code": "LPI",
    "iso_country": "SE",
    "latitude_deg": 58.40620041,
    "longitude_deg": 15.68050003,
    "type": "medium_airport"
  },
  {
    "name": "Norrk\u00f6ping Airport",
    "municipality": "Norrk\u00f6ping",
    "iata_code": "NRK",
    "iso_country": "SE",
    "latitude_deg": 58.5862999,
    "longitude_deg": 16.25060081,
    "type": "medium_airport"
  },
  {
    "name": "Torsby Airport",
    "municipality": null,
    "iata_code": "TYF",
    "iso_country": "SE",
    "latitude_deg": 60.1576004,
    "longitude_deg": 12.99129963,
    "type": "medium_airport"
  },
  {
    "name": "Eskilstuna Airport",
    "municipality": "Eskilstuna",
    "iata_code": "EKT",
    "iso_country": "SE",
    "latitude_deg": 59.35110092,
    "longitude_deg": 16.70840073,
    "type": "medium_airport"
  },
  {
    "name": "Visby Airport",
    "municipality": "Visby",
    "iata_code": "VBY",
    "iso_country": "SE",
    "latitude_deg": 57.66279984,
    "longitude_deg": 18.34620094,
    "type": "medium_airport"
  },
  {
    "name": "\u00c4ngelholm-Helsingborg Airport",
    "municipality": "\u00c4ngelholm",
    "iata_code": "AGH",
    "iso_country": "SE",
    "latitude_deg": 56.29610062,
    "longitude_deg": 12.84710026,
    "type": "medium_airport"
  },
  {
    "name": "Storuman Airport",
    "municipality": null,
    "iata_code": "SQO",
    "iso_country": "SE",
    "latitude_deg": 64.96089935,
    "longitude_deg": 17.69659996,
    "type": "medium_airport"
  },
  {
    "name": "Pajala Airport",
    "municipality": null,
    "iata_code": "PJA",
    "iso_country": "SE",
    "latitude_deg": 67.24559784,
    "longitude_deg": 23.06889915,
    "type": "medium_airport"
  },
  {
    "name": "Hemavan Airport",
    "municipality": null,
    "iata_code": "HMV",
    "iso_country": "SE",
    "latitude_deg": 65.80609894,
    "longitude_deg": 15.08279991,
    "type": "medium_airport"
  },
  {
    "name": "Celle Airport",
    "municipality": null,
    "iata_code": "ZCN",
    "iso_country": "DE",
    "latitude_deg": 52.59120178,
    "longitude_deg": 10.02210045,
    "type": "medium_airport"
  },
  {
    "name": "Fritzlar Airport",
    "municipality": "Fritzlar",
    "iata_code": "FRZ",
    "iso_country": "DE",
    "latitude_deg": 51.1146,
    "longitude_deg": 9.286,
    "type": "medium_airport"
  },
  {
    "name": "Rostock-Laage Airport",
    "municipality": "Rostock",
    "iata_code": "RLG",
    "iso_country": "DE",
    "latitude_deg": 53.91820145,
    "longitude_deg": 12.27830029,
    "type": "medium_airport"
  },
  {
    "name": "Wiesbaden Army Airfield",
    "municipality": "Wiesbaden",
    "iata_code": "WIE",
    "iso_country": "DE",
    "latitude_deg": 50.04980087,
    "longitude_deg": 8.325400352,
    "type": "medium_airport"
  },
  {
    "name": "Ingolstadt Manching Airport",
    "municipality": "Manching",
    "iata_code": "IGS",
    "iso_country": "DE",
    "latitude_deg": 48.71569824,
    "longitude_deg": 11.5340004,
    "type": "medium_airport"
  },
  {
    "name": "Daugavpils Intrenational Airport",
    "municipality": "Daugavpils",
    "iata_code": "DGP",
    "iso_country": "LV",
    "latitude_deg": 55.94472122,
    "longitude_deg": 26.66500092,
    "type": "medium_airport"
  },
  {
    "name": "Liep\u0101ja International Airport",
    "municipality": "Liep\u0101ja",
    "iata_code": "LPX",
    "iso_country": "LV",
    "latitude_deg": 56.51750183,
    "longitude_deg": 21.09690094,
    "type": "medium_airport"
  },
  {
    "name": "Riga International Airport",
    "municipality": "Riga",
    "iata_code": "RIX",
    "iso_country": "LV",
    "latitude_deg": 56.92359924,
    "longitude_deg": 23.97109985,
    "type": "large_airport"
  },
  {
    "name": "Ventspils International Airport",
    "municipality": "Ventspils",
    "iata_code": "VNT",
    "iso_country": "LV",
    "latitude_deg": 57.35779953,
    "longitude_deg": 21.5442009,
    "type": "medium_airport"
  },
  {
    "name": "Kaunas International Airport",
    "municipality": "Kaunas",
    "iata_code": "KUN",
    "iso_country": "LT",
    "latitude_deg": 54.96390152,
    "longitude_deg": 24.08480072,
    "type": "medium_airport"
  },
  {
    "name": "Palanga International Airport",
    "municipality": "Palanga",
    "iata_code": "PLQ",
    "iso_country": "LT",
    "latitude_deg": 55.97320175,
    "longitude_deg": 21.09390068,
    "type": "medium_airport"
  },
  {
    "name": "\u0160iauliai International Airport",
    "municipality": "\u0160iauliai",
    "iata_code": "SQQ",
    "iso_country": "LT",
    "latitude_deg": 55.89390182,
    "longitude_deg": 23.39500046,
    "type": "medium_airport"
  },
  {
    "name": "Barysiai Airport",
    "municipality": "Barysiai",
    "iata_code": "HLJ",
    "iso_country": "LT",
    "latitude_deg": 56.0705986,
    "longitude_deg": 23.55809975,
    "type": "medium_airport"
  },
  {
    "name": "Vilnius International Airport",
    "municipality": "Vilnius",
    "iata_code": "VNO",
    "iso_country": "LT",
    "latitude_deg": 54.634102,
    "longitude_deg": 25.285801,
    "type": "large_airport"
  },
  {
    "name": "Brive Souillac Airport",
    "municipality": null,
    "iata_code": "BVE",
    "iso_country": "FR",
    "latitude_deg": 45.039722,
    "longitude_deg": 1.485556,
    "type": "medium_airport"
  },
  {
    "name": "Outer Skerries Airport",
    "municipality": "Grunay Island",
    "iata_code": "OUK",
    "iso_country": "GB",
    "latitude_deg": 60.4252,
    "longitude_deg": -0.75,
    "type": "medium_airport"
  },
  {
    "name": "Fuerteventura Airport",
    "municipality": "Fuerteventura Island",
    "iata_code": "FUE",
    "iso_country": "ES",
    "latitude_deg": 28.45269966,
    "longitude_deg": -13.86380005,
    "type": "medium_airport"
  },
  {
    "name": "Hierro Airport",
    "municipality": "El Hierro Island",
    "iata_code": "VDE",
    "iso_country": "ES",
    "latitude_deg": 27.81480026,
    "longitude_deg": -17.88710022,
    "type": "medium_airport"
  },
  {
    "name": "La Palma Airport",
    "municipality": "Sta Cruz de la Palma, La Palma Island",
    "iata_code": "SPC",
    "iso_country": "ES",
    "latitude_deg": 28.626499,
    "longitude_deg": -17.7556,
    "type": "large_airport"
  },
  {
    "name": "Gran Canaria Airport",
    "municipality": "Gran Canaria Island",
    "iata_code": "LPA",
    "iso_country": "ES",
    "latitude_deg": 27.93190002,
    "longitude_deg": -15.38659954,
    "type": "large_airport"
  },
  {
    "name": "Lanzarote Airport",
    "municipality": "Lanzarote Island",
    "iata_code": "ACE",
    "iso_country": "ES",
    "latitude_deg": 28.945499,
    "longitude_deg": -13.6052,
    "type": "medium_airport"
  },
  {
    "name": "Tenerife South Airport",
    "municipality": "Tenerife Island",
    "iata_code": "TFS",
    "iso_country": "ES",
    "latitude_deg": 28.04450035,
    "longitude_deg": -16.57250023,
    "type": "large_airport"
  },
  {
    "name": "Tenerife Norte Airport",
    "municipality": "Tenerife Island",
    "iata_code": "TFN",
    "iso_country": "ES",
    "latitude_deg": 28.48270035,
    "longitude_deg": -16.34149933,
    "type": "large_airport"
  },
  {
    "name": "Melilla Airport",
    "municipality": "Melilla",
    "iata_code": "MLN",
    "iso_country": "ES",
    "latitude_deg": 35.27980042,
    "longitude_deg": -2.956259966,
    "type": "medium_airport"
  },
  {
    "name": "Airport",
    "municipality": "Geneva",
    "iata_code": "GVA",
    "iso_country": "CH",
    "latitude_deg": 0.0,
    "longitude_deg": 0.0,
    "type": "large_airport"
  },
  {
    "name": "Tirana International Airport Mother Teresa",
    "municipality": "Tirana",
    "iata_code": "TIA",
    "iso_country": "AL",
    "latitude_deg": 41.41469955,
    "longitude_deg": 19.72060013,
    "type": "large_airport"
  },
  {
    "name": "Burgas Airport",
    "municipality": "Burgas",
    "iata_code": "BOJ",
    "iso_country": "BG",
    "latitude_deg": 42.56959915,
    "longitude_deg": 27.51519966,
    "type": "large_airport"
  },
  {
    "name": "Gorna Oryahovitsa Airport",
    "municipality": "Gorna Oryahovitsa",
    "iata_code": "GOZ",
    "iso_country": "BG",
    "latitude_deg": 43.15140152,
    "longitude_deg": 25.71290016,
    "type": "medium_airport"
  },
  {
    "name": "Plovdiv International Airport",
    "municipality": "Plovdiv",
    "iata_code": "PDV",
    "iso_country": "BG",
    "latitude_deg": 42.067799,
    "longitude_deg": 24.8508,
    "type": "medium_airport"
  },
  {
    "name": "Sofia Airport",
    "municipality": "Sofia",
    "iata_code": "SOF",
    "iso_country": "BG",
    "latitude_deg": 42.69669342,
    "longitude_deg": 23.41143608,
    "type": "large_airport"
  },
  {
    "name": "Varna Airport",
    "municipality": "Varna",
    "iata_code": "VAR",
    "iso_country": "BG",
    "latitude_deg": 43.232101,
    "longitude_deg": 27.8251,
    "type": "large_airport"
  },
  {
    "name": "Ercan International Airport",
    "municipality": "Nicosia",
    "iata_code": "ECN",
    "iso_country": "CY",
    "latitude_deg": 35.15470123,
    "longitude_deg": 33.49610138,
    "type": "medium_airport"
  },
  {
    "name": "Larnaca International Airport",
    "municipality": "Larnarca",
    "iata_code": "LCA",
    "iso_country": "CY",
    "latitude_deg": 34.87509918,
    "longitude_deg": 33.62490082,
    "type": "large_airport"
  },
  {
    "name": "Paphos International Airport",
    "municipality": "Paphos",
    "iata_code": "PFO",
    "iso_country": "CY",
    "latitude_deg": 34.7179985,
    "longitude_deg": 32.4856987,
    "type": "large_airport"
  },
  {
    "name": "RAF Akrotiri",
    "municipality": "Akrotiri",
    "iata_code": "AKT",
    "iso_country": "GB",
    "latitude_deg": 34.590401,
    "longitude_deg": 32.9879,
    "type": "large_airport"
  },
  {
    "name": "Dubrovnik Airport",
    "municipality": "Dubrovnik",
    "iata_code": "DBV",
    "iso_country": "HR",
    "latitude_deg": 42.56140137,
    "longitude_deg": 18.26819992,
    "type": "medium_airport"
  },
  {
    "name": "Osijek Airport",
    "municipality": "Osijek",
    "iata_code": "OSI",
    "iso_country": "HR",
    "latitude_deg": 45.46269989,
    "longitude_deg": 18.81019974,
    "type": "medium_airport"
  },
  {
    "name": "Pula Airport",
    "municipality": "Pula",
    "iata_code": "PUY",
    "iso_country": "HR",
    "latitude_deg": 44.89350128,
    "longitude_deg": 13.9222002,
    "type": "medium_airport"
  },
  {
    "name": "Rijeka Airport",
    "municipality": "Rijeka",
    "iata_code": "RJK",
    "iso_country": "HR",
    "latitude_deg": 45.21689987,
    "longitude_deg": 14.5703001,
    "type": "medium_airport"
  },
  {
    "name": "Bol Airport",
    "municipality": "Bra\u010d Island",
    "iata_code": "BWK",
    "iso_country": "HR",
    "latitude_deg": 43.28570175,
    "longitude_deg": 16.67970085,
    "type": "medium_airport"
  },
  {
    "name": "Split Airport",
    "municipality": "Split",
    "iata_code": "SPU",
    "iso_country": "HR",
    "latitude_deg": 43.53889847,
    "longitude_deg": 16.29800034,
    "type": "medium_airport"
  },
  {
    "name": "Zagreb Airport",
    "municipality": "Zagreb",
    "iata_code": "ZAG",
    "iso_country": "HR",
    "latitude_deg": 45.74290085,
    "longitude_deg": 16.06879997,
    "type": "large_airport"
  },
  {
    "name": "Zadar Airport",
    "municipality": "Zemunik (Zadar)",
    "iata_code": "ZAD",
    "iso_country": "HR",
    "latitude_deg": 44.108299,
    "longitude_deg": 15.3467,
    "type": "medium_airport"
  },
  {
    "name": "Albacete-Los Llanos Airport",
    "municipality": "Albacete",
    "iata_code": "ABC",
    "iso_country": "ES",
    "latitude_deg": 38.94850159,
    "longitude_deg": -1.863520026,
    "type": "medium_airport"
  },
  {
    "name": "Alicante International Airport",
    "municipality": "Alicante",
    "iata_code": "ALC",
    "iso_country": "ES",
    "latitude_deg": 38.28219986,
    "longitude_deg": -0.558156013,
    "type": "large_airport"
  },
  {
    "name": "Almer\u00eda International Airport",
    "municipality": "Almer\u00eda",
    "iata_code": "LEI",
    "iso_country": "ES",
    "latitude_deg": 36.84389877,
    "longitude_deg": -2.370100021,
    "type": "medium_airport"
  },
  {
    "name": "Asturias Airport",
    "municipality": "Ran\u00f3n",
    "iata_code": "OVD",
    "iso_country": "ES",
    "latitude_deg": 43.56359863,
    "longitude_deg": -6.034619808,
    "type": "medium_airport"
  },
  {
    "name": "C\u00f3rdoba Airport",
    "municipality": "C\u00f3rdoba",
    "iata_code": "ODB",
    "iso_country": "ES",
    "latitude_deg": 37.84199905,
    "longitude_deg": -4.848879814,
    "type": "medium_airport"
  },
  {
    "name": "Bilbao Airport",
    "municipality": "Bilbao",
    "iata_code": "BIO",
    "iso_country": "ES",
    "latitude_deg": 43.30110168,
    "longitude_deg": -2.910609961,
    "type": "medium_airport"
  },
  {
    "name": "Burgos Airport",
    "municipality": "Burgos",
    "iata_code": "RGS",
    "iso_country": "ES",
    "latitude_deg": 42.35760117,
    "longitude_deg": -3.620759964,
    "type": "medium_airport"
  },
  {
    "name": "Barcelona International Airport",
    "municipality": "Barcelona",
    "iata_code": "BCN",
    "iso_country": "ES",
    "latitude_deg": 41.2971,
    "longitude_deg": 2.07846,
    "type": "large_airport"
  },
  {
    "name": "Badajoz Airport",
    "municipality": "Badajoz",
    "iata_code": "BJZ",
    "iso_country": "ES",
    "latitude_deg": 38.8913002,
    "longitude_deg": -6.82133007,
    "type": "medium_airport"
  },
  {
    "name": "A Coru\u00f1a Airport",
    "municipality": "Culleredo",
    "iata_code": "LCG",
    "iso_country": "ES",
    "latitude_deg": 43.302101,
    "longitude_deg": -8.37726,
    "type": "medium_airport"
  },
  {
    "name": "Cuatro Vientos Airport",
    "municipality": "Madrid",
    "iata_code": "ECV",
    "iso_country": "ES",
    "latitude_deg": 40.370701,
    "longitude_deg": -3.78514,
    "type": "medium_airport"
  },
  {
    "name": "Lleida-Alguaire Airport",
    "municipality": "Lleida",
    "iata_code": "ILD",
    "iso_country": "ES",
    "latitude_deg": 41.728185,
    "longitude_deg": 0.535023,
    "type": "medium_airport"
  },
  {
    "name": "Castell\u00f3n-Costa Azahar Airport",
    "municipality": "Castell\u00f3n de la Plana",
    "iata_code": "CDT",
    "iso_country": "ES",
    "latitude_deg": 40.213889,
    "longitude_deg": 0.073333,
    "type": "medium_airport"
  },
  {
    "name": "Girona Airport",
    "municipality": "Girona",
    "iata_code": "GRO",
    "iso_country": "ES",
    "latitude_deg": 41.90100098,
    "longitude_deg": 2.760550022,
    "type": "medium_airport"
  },
  {
    "name": "Federico Garcia Lorca Airport",
    "municipality": "Granada",
    "iata_code": "GRX",
    "iso_country": "ES",
    "latitude_deg": 37.18870163,
    "longitude_deg": -3.777359962,
    "type": "medium_airport"
  },
  {
    "name": "Ibiza Airport",
    "municipality": "Ibiza",
    "iata_code": "IBZ",
    "iso_country": "ES",
    "latitude_deg": 38.8728981,
    "longitude_deg": 1.37311995,
    "type": "medium_airport"
  },
  {
    "name": "Jerez Airport",
    "municipality": "Jerez de la Forntera",
    "iata_code": "XRY",
    "iso_country": "ES",
    "latitude_deg": 36.74459839,
    "longitude_deg": -6.060110092,
    "type": "medium_airport"
  },
  {
    "name": "San Javier Airport",
    "municipality": "San Javier",
    "iata_code": "MJV",
    "iso_country": "ES",
    "latitude_deg": 37.77500153,
    "longitude_deg": -0.812389016,
    "type": "medium_airport"
  },
  {
    "name": "Leon Airport",
    "municipality": "Le\u00f3n",
    "iata_code": "LEN",
    "iso_country": "ES",
    "latitude_deg": 42.5890007,
    "longitude_deg": -5.655560017,
    "type": "medium_airport"
  },
  {
    "name": "Adolfo Su\u00e1rez Madrid\u2013Barajas Airport",
    "municipality": "Madrid",
    "iata_code": "MAD",
    "iso_country": "ES",
    "latitude_deg": 40.471926,
    "longitude_deg": -3.56264,
    "type": "large_airport"
  },
  {
    "name": "M\u00e1laga Airport",
    "municipality": "M\u00e1laga",
    "iata_code": "AGP",
    "iso_country": "ES",
    "latitude_deg": 36.67490005,
    "longitude_deg": -4.499110222,
    "type": "large_airport"
  },
  {
    "name": "Menorca Airport",
    "municipality": "Menorca Island",
    "iata_code": "MAH",
    "iso_country": "ES",
    "latitude_deg": 39.86259842,
    "longitude_deg": 4.218649864,
    "type": "medium_airport"
  },
  {
    "name": "Palma De Mallorca Airport",
    "municipality": "Palma De Mallorca",
    "iata_code": "PMI",
    "iso_country": "ES",
    "latitude_deg": 39.55170059,
    "longitude_deg": 2.738810062,
    "type": "large_airport"
  },
  {
    "name": "Pamplona Airport",
    "municipality": "Pamplona",
    "iata_code": "PNA",
    "iso_country": "ES",
    "latitude_deg": 42.77000046,
    "longitude_deg": -1.646329999,
    "type": "medium_airport"
  },
  {
    "name": "Rota Naval Station Airport",
    "municipality": "Rota",
    "iata_code": "ROZ",
    "iso_country": "ES",
    "latitude_deg": 36.64519882,
    "longitude_deg": -6.349460125,
    "type": "medium_airport"
  },
  {
    "name": "Salamanca Airport",
    "municipality": "Salamanca",
    "iata_code": "SLM",
    "iso_country": "ES",
    "latitude_deg": 40.95209885,
    "longitude_deg": -5.501989841,
    "type": "medium_airport"
  },
  {
    "name": "San Sebastian Airport",
    "municipality": "Hondarribia",
    "iata_code": "EAS",
    "iso_country": "ES",
    "latitude_deg": 43.35649872,
    "longitude_deg": -1.790609956,
    "type": "medium_airport"
  },
  {
    "name": "Santiago de Compostela Airport",
    "municipality": "Santiago de Compostela",
    "iata_code": "SCQ",
    "iso_country": "ES",
    "latitude_deg": 42.89630127,
    "longitude_deg": -8.415140152,
    "type": "large_airport"
  },
  {
    "name": "Teruel Airport",
    "municipality": "Teruel",
    "iata_code": "TEV",
    "iso_country": "ES",
    "latitude_deg": 40.403,
    "longitude_deg": -1.2183,
    "type": "medium_airport"
  },
  {
    "name": "Torrej\u00f3n Airport",
    "municipality": "Madrid",
    "iata_code": "TOJ",
    "iso_country": "ES",
    "latitude_deg": 40.49670029,
    "longitude_deg": -3.445869923,
    "type": "medium_airport"
  },
  {
    "name": "Valencia Airport",
    "municipality": "Valencia",
    "iata_code": "VLC",
    "iso_country": "ES",
    "latitude_deg": 39.4893,
    "longitude_deg": -0.481625,
    "type": "medium_airport"
  },
  {
    "name": "Valladolid Airport",
    "municipality": "Valladolid",
    "iata_code": "VLL",
    "iso_country": "ES",
    "latitude_deg": 41.70610046,
    "longitude_deg": -4.851940155,
    "type": "medium_airport"
  },
  {
    "name": "Vitoria/Foronda Airport",
    "municipality": "Alava",
    "iata_code": "VIT",
    "iso_country": "ES",
    "latitude_deg": 42.88280106,
    "longitude_deg": -2.7244699,
    "type": "medium_airport"
  },
  {
    "name": "Vigo Airport",
    "municipality": "Vigo",
    "iata_code": "VGO",
    "iso_country": "ES",
    "latitude_deg": 42.23180008,
    "longitude_deg": -8.62677002,
    "type": "medium_airport"
  },
  {
    "name": "Santander Airport",
    "municipality": "Santander",
    "iata_code": "SDR",
    "iso_country": "ES",
    "latitude_deg": 43.42710114,
    "longitude_deg": -3.820009947,
    "type": "medium_airport"
  },
  {
    "name": "Sevilla Airport",
    "municipality": "Sevilla",
    "iata_code": "SVQ",
    "iso_country": "ES",
    "latitude_deg": 37.41799927,
    "longitude_deg": -5.893109798,
    "type": "medium_airport"
  },
  {
    "name": "Calais-Dunkerque Airport",
    "municipality": "Calais/Dunkerque",
    "iata_code": "CQF",
    "iso_country": "FR",
    "latitude_deg": 50.96210098,
    "longitude_deg": 1.954759955,
    "type": "medium_airport"
  },
  {
    "name": "Le Touquet-C\u00f4te d'Opale Airport",
    "municipality": "Le Touquet-Paris-Plage",
    "iata_code": "LTQ",
    "iso_country": "FR",
    "latitude_deg": 50.51739883,
    "longitude_deg": 1.620589972,
    "type": "medium_airport"
  },
  {
    "name": "Valenciennes-Denain Airport",
    "municipality": "Valenciennes/Denain",
    "iata_code": "XVS",
    "iso_country": "FR",
    "latitude_deg": 50.32580185,
    "longitude_deg": 3.46126008,
    "type": "medium_airport"
  },
  {
    "name": "Agen-La Garenne Airport",
    "municipality": "Agen/La Garenne",
    "iata_code": "AGF",
    "iso_country": "FR",
    "latitude_deg": 44.17470169,
    "longitude_deg": 0.590556026,
    "type": "medium_airport"
  },
  {
    "name": "Bordeaux-M\u00e9rignac Airport",
    "municipality": "Bordeaux/M\u00e9rignac",
    "iata_code": "BOD",
    "iso_country": "FR",
    "latitude_deg": 44.82830048,
    "longitude_deg": -0.715556026,
    "type": "large_airport"
  },
  {
    "name": "Bergerac-Roumani\u00e8re Airport",
    "municipality": "Bergerac/Roumani\u00e8re",
    "iata_code": "EGC",
    "iso_country": "FR",
    "latitude_deg": 44.82529831,
    "longitude_deg": 0.518611014,
    "type": "medium_airport"
  },
  {
    "name": "La Rochelle-\u00cele de R\u00e9 Airport",
    "municipality": "La Rochelle/\u00cele de R\u00e9",
    "iata_code": "LRH",
    "iso_country": "FR",
    "latitude_deg": 46.17919922,
    "longitude_deg": -1.195279956,
    "type": "medium_airport"
  },
  {
    "name": "Poitiers-Biard Airport",
    "municipality": "Poitiers/Biard",
    "iata_code": "PIS",
    "iso_country": "FR",
    "latitude_deg": 46.58769989,
    "longitude_deg": 0.306665987,
    "type": "medium_airport"
  },
  {
    "name": "Montlu\u00e7on-Gu\u00e9ret Airport",
    "municipality": "Montlu\u00e7on/Gu\u00e9ret",
    "iata_code": "MCU",
    "iso_country": "FR",
    "latitude_deg": 46.22259903,
    "longitude_deg": 2.363960028,
    "type": "medium_airport"
  },
  {
    "name": "Limoges Airport",
    "municipality": "Limoges/Bellegarde",
    "iata_code": "LIG",
    "iso_country": "FR",
    "latitude_deg": 45.8628006,
    "longitude_deg": 1.179440022,
    "type": "medium_airport"
  },
  {
    "name": "Niort-Souch\u00e9 Airport",
    "municipality": "Niort/Souch\u00e9",
    "iata_code": "NIT",
    "iso_country": "FR",
    "latitude_deg": 46.313477,
    "longitude_deg": -0.394529,
    "type": "medium_airport"
  },
  {
    "name": "Toulouse-Blagnac Airport",
    "municipality": "Toulouse/Blagnac",
    "iata_code": "TLS",
    "iso_country": "FR",
    "latitude_deg": 43.629101,
    "longitude_deg": 1.36382,
    "type": "large_airport"
  },
  {
    "name": "Pau Pyr\u00e9n\u00e9es Airport",
    "municipality": "Pau/Pyr\u00e9n\u00e9es (Uzein)",
    "iata_code": "PUF",
    "iso_country": "FR",
    "latitude_deg": 43.38000107,
    "longitude_deg": -0.41861099,
    "type": "medium_airport"
  },
  {
    "name": "Tarbes-Lourdes-Pyr\u00e9n\u00e9es Airport",
    "municipality": "Tarbes/Lourdes/Pyr\u00e9n\u00e9es",
    "iata_code": "LDE",
    "iso_country": "FR",
    "latitude_deg": 43.17869949,
    "longitude_deg": -0.006439,
    "type": "medium_airport"
  },
  {
    "name": "Angoul\u00eame-Brie-Champniers Airport",
    "municipality": "Angoul\u00eame/Brie/Champniers",
    "iata_code": "ANG",
    "iso_country": "FR",
    "latitude_deg": 45.72919846,
    "longitude_deg": 0.221456006,
    "type": "medium_airport"
  },
  {
    "name": "P\u00e9rigueux-Bassillac Airport",
    "municipality": "P\u00e9rigueux/Bassillac",
    "iata_code": "PGX",
    "iso_country": "FR",
    "latitude_deg": 45.19810104,
    "longitude_deg": 0.81555599,
    "type": "medium_airport"
  },
  {
    "name": "Biarritz-Anglet-Bayonne Airport",
    "municipality": "Biarritz/Anglet/Bayonne",
    "iata_code": "BIQ",
    "iso_country": "FR",
    "latitude_deg": 43.4683333,
    "longitude_deg": -1.5311111,
    "type": "medium_airport"
  },
  {
    "name": "Cahors-Lalbenque Airport",
    "municipality": "Cahors/Lalbenque",
    "iata_code": "ZAO",
    "iso_country": "FR",
    "latitude_deg": 44.35139847,
    "longitude_deg": 1.475280046,
    "type": "medium_airport"
  },
  {
    "name": "Albi-Le S\u00e9questre Airport",
    "municipality": "Albi/Le S\u00e9questre",
    "iata_code": "LBI",
    "iso_country": "FR",
    "latitude_deg": 43.91389847,
    "longitude_deg": 2.113059998,
    "type": "medium_airport"
  },
  {
    "name": "Castres-Mazamet Airport",
    "municipality": "Castres/Mazamet",
    "iata_code": "DCM",
    "iso_country": "FR",
    "latitude_deg": 43.55630112,
    "longitude_deg": 2.28918004,
    "type": "medium_airport"
  },
  {
    "name": "Rodez-Marcillac Airport",
    "municipality": "Rodez/Marcillac",
    "iata_code": "RDZ",
    "iso_country": "FR",
    "latitude_deg": 44.40790176,
    "longitude_deg": 2.482670069,
    "type": "medium_airport"
  },
  {
    "name": "Royan-M\u00e9dis Airport",
    "municipality": "Royan/M\u00e9dis",
    "iata_code": "RYN",
    "iso_country": "FR",
    "latitude_deg": 45.62810135,
    "longitude_deg": -0.972500026,
    "type": "medium_airport"
  },
  {
    "name": "Montauban Airport",
    "municipality": "Montauban",
    "iata_code": "XMW",
    "iso_country": "FR",
    "latitude_deg": 44.02569962,
    "longitude_deg": 1.378039956,
    "type": "medium_airport"
  },
  {
    "name": "Rochefort-Saint-Agnant (BA 721) Airport",
    "municipality": "Rochefort/Saint-Agnant",
    "iata_code": "RCO",
    "iso_country": "FR",
    "latitude_deg": 45.88779831,
    "longitude_deg": -0.983056009,
    "type": "medium_airport"
  },
  {
    "name": "\u00cele d'Yeu Airport",
    "municipality": "\u00cele d'Yeu",
    "iata_code": "IDY",
    "iso_country": "FR",
    "latitude_deg": 46.71860123,
    "longitude_deg": -2.391109943,
    "type": "medium_airport"
  },
  {
    "name": "Colmar-Houssen Airport",
    "municipality": "Colmar/Houssen",
    "iata_code": "CMR",
    "iso_country": "FR",
    "latitude_deg": 48.10990143,
    "longitude_deg": 7.35901022,
    "type": "medium_airport"
  },
  {
    "name": "Dole-Tavaux Airport",
    "municipality": "Dole/Tavaux",
    "iata_code": "DLE",
    "iso_country": "FR",
    "latitude_deg": 47.042686,
    "longitude_deg": 5.435061,
    "type": "medium_airport"
  },
  {
    "name": "Aubenas-Ard\u00e8che M\u00e9ridional Airport",
    "municipality": "Aubenas/Ard\u00e8che M\u00e9ridional",
    "iata_code": "OBS",
    "iso_country": "FR",
    "latitude_deg": 44.544203,
    "longitude_deg": 4.372192,
    "type": "medium_airport"
  },
  {
    "name": "Le Puy-Loudes Airport",
    "municipality": "Le Puy/Loudes",
    "iata_code": "LPY",
    "iso_country": "FR",
    "latitude_deg": 45.08069992,
    "longitude_deg": 3.7628901,
    "type": "medium_airport"
  },
  {
    "name": "Metz-Nancy-Lorraine Airport",
    "municipality": "Metz / Nancy",
    "iata_code": "ETZ",
    "iso_country": "FR",
    "latitude_deg": 48.98210144,
    "longitude_deg": 6.251319885,
    "type": "medium_airport"
  },